place_id,name,formatted_address,lat,lng,types,rating,price_level
ChIJRR3an24FdkgRCldSrK3Pgu0,Chelsea Fire Station,"264 King's Rd, London SW3 5UF, United Kingdom",51.4871857,-0.1703283,fire_station,4.8,0
ChIJf2FWiNIEdkgRG2VaMMbrq2c,Soho (A24) Fire Station,"126 Shaftesbury Ave, London W1D 5ET, United Kingdom",51.5125987,-0.1300571,fire_station,4.9,0
ChIJNZ5yaeoEdkgRMI5WTU6HHvc,London Fire Brigade,"8 Albert Embankment, London SE1 7SD, United Kingdom",51.492739,-0.1213465,fire_station,4.9,0
ChIJ6e45JlQDdkgRRlLPI5IfZVQ,Dowgate Fire Station,"94-95 Upper Thames St., London EC4R 3UE, United Kingdom",51.5100529,-0.0902268,fire_station,5,0
ChIJo3EwoJwPdkgRneAOmUcDAlA,Fulham Fire Station,"685 Fulham Rd., London SW6 5UJ, United Kingdom",51.4779579,-0.2010297,fire_station,5,0
ChIJvbAUKq0FdkgRi_GfvfH76hs,Clapham (H21) Fire Station,"29 Old Town, London SW4 0JT, United Kingdom",51.4648828,-0.1409434,fire_station,4.8,0
ChIJsxrHGCUbdkgRqy5E0EmlXco,Euston Fire Station,"Parking lot, 172 Euston Rd, London NW1 2DH, United Kingdom",51.5276478,-0.1308006,fire_station,3.9,0
ChIJ9eEojGYbdkgRo7cHMnrhHIk,Islington Fire Station,"278 Upper St, London N1 2TZ, United Kingdom",51.5402433,-0.1024266,fire_station,4.9,0
ChIJAdfxW2wDdkgRjMagiXKSTko,Old Kent Road Fire Station,"380 Old Kent Rd, London SE1 5AA, United Kingdom",51.4870247,-0.07361609999999999,fire_station,4.5,0
ChIJ6xFHtX4QdkgRTyLogqSD218,West Hampstead Fire Station,"327B W End Ln, London NW6 1RS, United Kingdom",51.5517167,-0.1927863,fire_station,4.3,0
ChIJISCHmOsGdkgRquQiH7S5uLQ,Norbury (H32) Fire Station,"1327 London Rd, Norbury, London SW16 4AU, United Kingdom",51.4068658,-0.121474,fire_station,4.8,0
ChIJ8b22q6gGdkgRWc6yk6q4a2Y,West Norwood (H25) Fire Station,"210 Knights Hill, Norwood, London SE27 0QA, United Kingdom",51.4258523,-0.1053136,fire_station,4.6,0
ChIJfcuJqX4GdkgR2qU3Oft2cDA,Direct Fire safety,"69 Nimrod Rd, London SW16 6SZ, United Kingdom",51.4253979,-0.1466364,fire_station,0,0
ChIJtzCtVzAGdkgR9GSQbJ8mhCs,Mitcham Fire Station,"421-445 London Rd, Mitcham CR4 4BJ, United Kingdom",51.3972109,-0.172745,fire_station,5,0
ChIJ3_3zjpoFdkgRjpKB4Ev9e2A,Brixton Fire Station,"57 Gresham Rd, London SW9 7NP, United Kingdom",51.463766,-0.109385,fire_station,4,0
ChIJm35KTpkFdkgRCBRe3JZkM_M,Battersea Fire Station,"11 Este Rd, London SW11 2TL, United Kingdom",51.4671433,-0.1693147,fire_station,5,0
ChIJNWasmaQIdkgRboyChCByb6E,Wimbledon Fire Station,"87 Kingston Rd, London SW19 1JN, United Kingdom",51.4155324,-0.1975421,fire_station,4.6,0
ChIJEw0DPHYDdkgR2TEqerPPdI4,Peckham Fire Station,"78-80 Peckham Rd, London SE5 8PR, United Kingdom",51.4738876,-0.0779807,fire_station,5,0
ChIJ-47VseMAdkgRXzWi3CmzJdg,Woodside Fire Station,"Croydon CR0 7AL, United Kingdom",51.3858775,-0.0624366,fire_station,4.4,0
ChIJZVBBlDICdkgReAfjAMq7KOQ,Forest Hill (E31) Fire Station,"155 Stanstead Rd, London SE23 1HP, United Kingdom",51.4425394,-0.0450289,fire_station,3.5,0
ChIJS2FiizcHdkgRInctO0zHEEE,Croydon Fire Station,"90 Old Town, Croydon CR0 1AR, United Kingdom",51.3690207,-0.1051399,fire_station,5,0
ChIJEY2OOqAIdkgRY2Z-yN_u1Tk,London Fire Brigade Control Centre,"6 Jubilee Way, London SW19 3XD, United Kingdom",51.4105642,-0.1894056,fire_station,3.4,0
ChIJdxdwfiQRdkgRAwTLdBqii6E,Willesden Fire Station,"London NW10 2HH, United Kingdom",51.5443722,-0.2366208,fire_station,5,0
ChIJ1ZHCuuQHdkgRCAwYPorcxJw,Wallington Fire Station H37,"19 Belmont Rd, Wallington SM6 8TE, United Kingdom",51.3623574,-0.1482534,fire_station,0,0
ChIJj4V34qsadkgRYGOq7Kf7owA,London Fire Brigade,"156 Harrow Rd, London W2 6NL, United Kingdom",51.5202041,-0.183022,fire_station,4.5,0
ChIJH2HZTF4bdkgRT_4_y6FMyZ4,F B U London Region,"Frome St, London N1 8PB, United Kingdom",51.534209,-0.0969995,fire_station,0,0
ChIJYXE9Z0cDdkgRfgOIq_FO6DM,Dockhead Fire Station,"8 Wolseley St, London SE1 2BW, United Kingdom",51.5007055,-0.07076199999999999,fire_station,4.7,0
ChIJic_ejMyo2EcRC9X8Y_m3PHw,Plumstead Fire Station (E25),"1 Lakedale Rd, London SE18 1PP, United Kingdom",51.487436,0.09135599999999999,fire_station,3.8,0
ChIJiUGf320CdkgRM1zvh-DMAPc,Lewisham Fire Station,"249, 259 Lewisham High St, London SE13 6NH, United Kingdom",51.45713319999999,-0.0133361,fire_station,4.8,0
ChIJM1PBkNUCdkgR2LYkEaZtZB0,Shadwell (F25) Fire Station,"290 Cable St, London E1 0BX, United Kingdom",51.5109803,-0.0559321,fire_station,4.6,0
ChIJfeeas8ocdkgRvqRv17FcSE0,Whitechapel Fire Station,"27 Commercial Rd, London E1 1LN, United Kingdom",51.5151588,-0.0690775,fire_station,4.3,0
ChIJL-uitmQbdkgRJ7aESpS-NzM,Finchley fire station,"Long Lane (Stop F, London N3 2RP, United Kingdom",51.5978131,-0.1790707,fire_station,5,0
ChIJXyt8LtocdkgR-drEjlwBT2w,Bethnal Green Fire Station,"11 Roman Rd, Bethnal Green, London E2 0HU, United Kingdom",51.5277679,-0.0533656,fire_station,4.8,0
ChIJpaj_C3mn2EcR7QTeS_NV4a4,Leytonstone Fire Station,"466 High Rd Leytonstone, London E11 3HN, United Kingdom",51.56066970000001,0.0085954,fire_station,4.2,0
ChIJgdI6OJ8bdkgRURdtXPi2wVI,Holloway Fire Station,"270-282 Hornsey Rd, Finsbury Park, London N7 7QZ, United Kingdom",51.5615402,-0.1159995,fire_station,5,0
ChIJpUijnqUcdkgRLJT-aYwDVHE,Shoreditch Fire Station,"235 Old St, London EC1V 9EY, United Kingdom",51.5264428,-0.08556319999999999,fire_station,4.3,0
ChIJxaudY8gPdkgRJ61ppK8o1VI,Hammersmith (G36) Fire Station,"G36, Laurie Arms, 190-192 Shepherds Bush Rd, London W6 7NL, United Kingdom",51.4961116,-0.2242032,fire_station,4.5,0
ChIJQVRYr3QAdkgRDrEKB31a0b4,Addington Fire Station,"197-199 Lodge Ln, New Addington, Croydon CR0 0QA, United Kingdom",51.3522218,-0.0243566,fire_station,4.5,0
ChIJZXMZRcOp2EcRTos_L4_emoA,Lee Green Fire Station,"9 Eltham Rd, London SE12 8ES, United Kingdom",51.4564524,0.0126902,fire_station,4.5,0
ChIJVQM399QZdkgRjeCCd6ZY9bE,Barnet Fire Station,"Fire Station, 144 Station Rd, Barnet EN5 1TE, United Kingdom",51.6471842,-0.1859367,fire_station,0,0
ChIJMZwVBcUbdkgRuP_SO16D3_E,Hornsey Fire Station,"108 Park Ave S, London N8 8LS, United Kingdom",51.5865145,-0.1272324,fire_station,4,0
ChIJOWYlsettdkgRhhzDiWtX_Sw,Hillingdon Fire Station,"3-4 Uxbridge Rd, Uxbridge UB10 0PH, United Kingdom",51.5320407,-0.4522832,fire_station,4.8,0
ChIJmw7E_moRdkgROq-T4Yeddd8,North Kensington Fire Station (G27),"242 Ladbroke Grove, London W10 5SH, United Kingdom",51.5218389,-0.2122555,fire_station,5,0
ChIJXx5eOroEdkgRdactEINHXkY,L C C Fire Brigade Station,"London SE1 8BT, United Kingdom",51.5025556,-0.1105786,fire_station,0,0
ChIJV0ABle8CdkgRWgUpcNyLnVo,Deptford Fire Station,"186 Evelyn St, London SE8 5DB, United Kingdom",51.4848835,-0.0337804,fire_station,3.6,0
ChIJYWV24S4ddkgR9Dmjxj2MG8Q,Homerton Fire Station,"97 Homerton High St, London E9 6DL, United Kingdom",51.5485407,-0.0439185,fire_station,5,0
ChIJG5hnl94DdkgRTDwLZ9xamPk,Greenwich Fire Station,"4 Blissett St, London SE10 8NX, United Kingdom",51.47402030000001,-0.0135799,fire_station,0,0
ChIJVVOSGccCdkgRMfvIa2xbUl8,Millwall Fire Station,"43 Westferry Rd, London E14 8JH, United Kingdom",51.5008981,-0.0254822,fire_station,4.8,0
ChIJP61R1wwDdkgR1ckFSVQ7uyM,New Cross Fire Station,"New Cross Fire Station, 266 Queen's Rd, London SE14 5JN, United Kingdom",51.4737514,-0.0492488,fire_station,0,0
ChIJ_1EPfGyq2EcRIviaIKJvaVk,Bromley Fire Station,"4 South St, Bromley BR1 1RH, United Kingdom",51.4070459,0.0171497,fire_station,5,0
ChIJmYBcr8wFdkgRMcaZT92nUQk,London County Fire Brigade,"2 Roden St, Tooting Bec, London N7 6QL, United Kingdom",51.4378592,-0.1627179,fire_station,0,0
ChIJCwnQb2sOdkgR1LvIoJ90YEk,Chiswick (G37) Fire Station,"2-4 Heathfield Gardens, Chiswick, London W4 4JY, United Kingdom",51.490533,-0.2689428,fire_station,5,0
ChIJpae0N-oJdkgR7ii2GjoAXMk,Sutton Fire Station,"43 St Dunstan's Hill, Sutton SM1 2JX, United Kingdom",51.36897829999999,-0.2111394,fire_station,0,0
ChIJFSPEMt8SdkgRevZFuoG0SzQ,Northolt Fire Station,"74 Pett's Hill, Northolt UB5 4JT, United Kingdom",51.5546508,-0.3595441,fire_station,5,0
ChIJgYbvyJ4MdkgRr1VmIVdDCrA,Twickenham Fire Station,"30 South Rd, Twickenham TW2 5NT, United Kingdom",51.4351808,-0.3476203,fire_station,4.8,0
ChIJVwzTNLICdkgRvq0NqUH5IsY,Poplar Fire Station,"168 E India Dock Rd, London E14 0BP, United Kingdom",51.510938,-0.014634,fire_station,4.6,0
ChIJsZUu3XKp2EcR0nor8n3Fcsk,Eltham Fire Station,"226 Eltham High St, London SE9 1BA, United Kingdom",51.450696,0.05939079999999999,fire_station,4.8,0
ChIJG5BG1SsMdkgRnebCReI86Bc,Richmond (H42) Fire Station,"Fire Station, 323 Lower Richmond Rd, Richmond TW9 4PN, United Kingdom",51.46741240000001,-0.2849489,fire_station,5,0
ChIJoyCnho4bdkgRDZ2p6wop9lQ,Kentish Town fire station,"20 Highgate Rd, London NW5 1NT, United Kingdom",51.5527179,-0.1417484,fire_station,0,0
ChIJwUWZlwCs2EcREHgDb25JGKU,Sidcup Fire Station,"156 Main Rd, Sidcup DA14 6NZ, United Kingdom",51.4270724,0.09457549999999999,fire_station,0,0
ChIJsfNmJc6h2EcRxAywCJH9Feg,Woodford Fire Station,"2 Snakes Ln W, Woodford, London, Woodford Green IG8 0BS, United Kingdom",51.609445,0.0241362,fire_station,0,0
ChIJE1PFOr0BdkgR6WHSgGX1L1o,Beckenham Fire Station,"8 Beckenham Rd, Beckenham BR3 4LR, United Kingdom",51.40805839999999,-0.0341093,fire_station,5,0
ChIJ_yDaLY6n2EcRI3KPygTMmmM,Stratford Fire Station,"117 Romford Rd, London E15 4EH, United Kingdom",51.5436364,0.0111471,fire_station,4.3,0
ChIJDQ4rvS-m2EcRwxba4wN_hvk,East Ham Fire Station,"210 High St S, London E6 3RS, United Kingdom",51.52351669999999,0.0570995,fire_station,5,0
ChIJm8_YxQgUdkgRlyU2p-r7aWI,Stanmore Fire Station,"650 Honeypot Ln, Stanmore HA7 1JS, United Kingdom",51.6036014,-0.297584,fire_station,5,0
ChIJ_d2t75sddkgRNJuNnnFOrwM,Leyton Fire Station,"106 Church Rd, London E10 5HG, United Kingdom",51.5632668,-0.0165963,fire_station,4.8,0
ChIJZwFOTOKk2EcROIPlUBWNViA,Dagenham (F41) Fire Station,"70 Rainham Rd N, Dagenham RM10 7ES, United Kingdom",51.5591631,0.1569482,fire_station,4.2,0
ChIJc4f5qd-12EcRgS5741WqxJ0,Kent Fire and Rescue Service Thames Side Fire Station,"Coldharbour Rd, Northfleet, Gravesend DA11 8NT, United Kingdom",51.4251196,0.3533485,fire_station,5,0
ChIJFWD63pdL30cRVkkaQnPDHb8,Kent Fire & Rescue Service,"60-62 Western Rd, Borough Green, Sevenoaks TN15 8AQ, United Kingdom",51.292721,0.303302,fire_station,5,0
ChIJOZ4Wq5QRdkgRYjB9XYOHzzI,Park Royal Fire Station,"15 Waxlow Rd, London NW10 7NU, United Kingdom",51.535762,-0.2647323,fire_station,4.1,0
ChIJqZgPyi0DdkgRLMJ4ByHQRb4,Lfb,"290 Cable St, London E1 0BX, United Kingdom",51.5109901,-0.056056,fire_station,0,0
ChIJxX8EL2gRdkgR26l4F8DFk98,A40 Hendon Fire Station,"91 The Burroughs, London NW4 4BL, United Kingdom",51.5888631,-0.2286153,fire_station,5,0
ChIJ4VJihgYOdkgRTY-Ltf_tIrk,Acton Fire Station,"27 Gunnersbury Ln, London W3 8EA, United Kingdom",51.50708119999999,-0.2769993,fire_station,5,0
ChIJl64Tkzio2EcRGY1KpXu9fnY,East Greenwich Fire Station,"325 Woolwich Rd, London SE7 7RF, United Kingdom",51.48703099999999,0.0222947,fire_station,5,0
ChIJ7XGkz2gPdkgRtVQhxT0GuLs,Wandsworth (H33) Fire Station,"45 West Hill, London SW18 1RL, United Kingdom",51.4565061,-0.2014729,fire_station,5,0
ChIJgZGxoukedkgRWyyGjlYpIHY,A34 Edmonton Fire Station,"99 Church St, London N9 9AA, United Kingdom",51.6272163,-0.0690759,fire_station,4,0
ChIJNQK_bGdydkgRHzRb_Q9a8jk,Hayes Fire Station,"65 Shepiston Ln, Hayes UB3 1LL, United Kingdom",51.4944517,-0.4316858,fire_station,4.7,0
ChIJC3vAp4kNdkgRRjKAJEs4itU,Ealing Fire Station,"60-64 Uxbridge Rd, London W13 8RA, United Kingdom",51.5120371,-0.3138825,fire_station,4.8,0
ChIJW0xWtrJI30cRTCsOFuyjohE,Southborough Fire Station,"London Rd, Tunbridge Wells TN4 0BB, United Kingdom",51.1540615,0.2607985,fire_station,4.5,0
ChIJV5pYQ5ELdkgRNMrdKgTmEBg,Surbiton Fire Station,"31 Ewell Rd, Surbiton KT6 6AF, United Kingdom",51.3924189,-0.2980035,fire_station,5,0
ChIJ0Z2zZGwWdkgREHU9N6lzQck,Borehamwood Fire Station,"55 Elstree Way, Borehamwood WD6 1JP, United Kingdom",51.6590453,-0.2667167,fire_station,5,0
ChIJzVGAmg9V30cRV3mLpHwLcHU,Biggin Hill Fire Station,"8 Kingsmead, Biggin Hill, Westerham TN16 3UB, United Kingdom",51.31364869999999,0.0340791,fire_station,5,0
ChIJw_zpAh0NdkgR-IAwuHF_4Os,Heston and Isleworth Fire Station,"520 London Rd, Isleworth TW7 4HR, United Kingdom",51.4749688,-0.3432177,fire_station,5,0
ChIJCe2B-zD2dUgRfGTR327IHnY,West Sussex Fire & Rescue Service,"London Road, East Grinstead RH19 1HA, United Kingdom",51.129448,-0.0150014,fire_station,3.8,0
ChIJ2ciEebYLdkgRRL9yFOgsUZs,H41 Kingston Fire Station,"390 Richmond Rd, Kingston upon Thames KT2 5PR, United Kingdom",51.42936049999999,-0.3066258,fire_station,0,0
ChIJTfwBUwUJdkgR6e1ZWNkUS0o,New Malden (H40) Fire Station,"180 Burlington Rd, New Malden KT3 4RW, United Kingdom",51.3990879,-0.2454356,fire_station,4.8,0
ChIJg_07sAlwdkgRH4mgYVoY0LM,Langley Fire Station 18,"London Road, Berkshire, Slough, Langley SL3 7HS, United Kingdom",51.5000323,-0.5638554,fire_station,5,0
ChIJq6oZ35cEdkgRW1197MX31MI,Fire Damage Helpline,"68 Walcot Square, London SE11 4TZ, United Kingdom",51.4938029,-0.1073384,fire_station,0,0
ChIJ9_zaRQmm2EcRiSdfQ7xYlk4,Barking Fire Station,"Alfreds Way, Barking IG11 0BB, United Kingdom",51.5297989,0.0889253,fire_station,5,0
ChIJ98Dj0p4EdkgRl2ZIJfvUfSc,L D D Fire Protection,"19, Newington Industrial Estate, Crampton St, London SE17 3AZ, United Kingdom",51.4907821,-0.0995847,fire_station,3.7,0
ChIJq6oOs8ocdkgR4-z9WSaaJqw,London's fire and rescue service,"London E1 1LL, United Kingdom",51.5151573,-0.06946569999999999,fire_station,0,0
ChIJlwOIJFIddkgRMopYMQBQ4dw,L . C . C . Fire Brigade Station A . D .,"Gillender St, Aberfeldy Village, London E14 6RH, United Kingdom",51.5197701,-0.0098522,fire_station,0,0
ChIJTRSvGggddkgR1_EzvTw0kUM,Tottenham Fire Station,"49 St. Loys Rd, London N17 6UE, United Kingdom",51.5925699,-0.07155650000000001,fire_station,5,0
ChIJq7ctEtV6dkgRnJ-iHhq5ap8,Slough Fire Station,"Tuns Ln, Slough SL1 2XA, United Kingdom",51.5114949,-0.6121171,fire_station,5,0
ChIJVVXWv3psdkgR9OU4hVoDZVs,Ruislip Fire Station,"8 Reservoir Rd, Ruislip HA4 7TT, United Kingdom",51.5884328,-0.4365729,fire_station,0,0
ChIJB6VQ-54EdkgRy6neDTK4G8c,Firing Squad,"Julian Markham House, 114 Walworth Rd, London SE17 1JL, United Kingdom",51.4921116,-0.0985026,fire_station,0,0
ChIJ18Z2hrIEdkgRnjyDBVUpblQ,Cease Fire C 5,"22 Tudor St, London EC4Y 0AY, United Kingdom",51.51264320000001,-0.1062909,fire_station,0,0
ChIJeV3-0c0EdkgRby8d2AqVDxk,Mays Court,"Mays Ct, London WC2N 4EJ, United Kingdom",51.510332,-0.126627,fire_station,0,0
ChIJBSvm11cddkgReFgaQo2q3Kc,F36 Walthamstow Fire Station,"343 Forest Rd, London E17 5JR, United Kingdom",51.5897453,-0.0288151,fire_station,5,0
