place_id,name,formatted_address,lat,lng,types,rating,price_level
ChIJw8rXrEAFdkgRn43EZjl1OOA,Little Waitrose & Partners Knightsbridge,"118-120 Brompton Rd, London SW3 1JE, United Kingdom",51.4991486,-0.1649458,supermarket,4.2,2
ChIJvY3WhmwFdkgRYLQEbo9yv8E,Waitrose & Partners Kings Road,"196 King's Rd, London SW3 5XP, United Kingdom",51.4883253,-0.1670601,supermarket,4.2,2
ChIJz1s_6moFdkgRP8A5IBBRZG8,Sainsbury's Local,"75 Sloane Ave, London SW3 3DH, United Kingdom",51.4922032,-0.1661628,supermarket,3.3,2
ChIJVSQBzRUFdkgRAM3JRgnJjWg,Partridges,"2-5 Duke of York Square, London SW3 4LY, United Kingdom",51.4907227,-0.1606203,supermarket,4.2,0
ChIJSxGpqhMFdkgRrgg2wyK-EyI,Tesco Express,"80-81 Royal Hospital Rd, London SW3 4HN, United Kingdom",51.4859763,-0.1612812,supermarket,3,1
ChIJlZtzVEcFdkgRfavDbixpEUM,Sainsbury's Local,"Moreau House, 112-120 Brompton Rd, London SW3 1JJ, United Kingdom",51.4992671,-0.1647473,supermarket,3.5,2
ChIJnyvFjm4FdkgRdf6magay-rg,Londis,"237 King's Rd, London SW3 5EJ, United Kingdom",51.4863244,-0.1712678,supermarket,3.5,2
ChIJMV6z_GcFdkgRRTWjC3u-Diw,Tesco Express,"50-52 Old Brompton Rd, South Kensington, London SW7 3DY, United Kingdom",51.49319149999999,-0.1764082,supermarket,2.7,1
ChIJ3WgTtUAFdkgRp5oGhrZWPpE,Knights Food Fayre,"9 Montpelier St, London SW7 1EX, United Kingdom",51.4990232,-0.1658531,supermarket,4.3,0
ChIJDSRCOn0FdkgRDuhoniQg_7g,Tesco Esso Express,"458 Fulham Rd., London SW10 9UZ, United Kingdom",51.4826357,-0.1859549,supermarket,3.9,1
ChIJxYfXiV8FdkgRBpYr6sKIgXM,Sainsbury's,"158a Cromwell Rd, London SW7 4EJ, United Kingdom",51.4954833,-0.1882105,supermarket,4.3,2
ChIJzwOs-G4cdkgREblIkkivP_o,UK Supermarket,"84 Dunsmure Rd, London N16 5JY, United Kingdom",51.5706357,-0.0793256,supermarket,3.1,0
ChIJj7gVVPYPdkgRCNu9OHegOj8,Whole Foods Market,"63-97 Kensington High St, London W8 5SE, United Kingdom",51.50193909999999,-0.1903655,supermarket,4.5,3
ChIJozyOaNIEdkgR5RxEpXNUGeM,SeeWoo,"18-20 Lisle St, London WC2H 7BA, United Kingdom",51.511605,-0.1304229,supermarket,4.1,0
ChIJd_jjQMwEdkgRh1TovPapxSM,Tesco Express,"22-25 Bedford St, London WC2E 9EQ, United Kingdom",51.5110541,-0.1251813,supermarket,3.9,1
ChIJ46tWNDYbdkgR8loLcmGFl-4,The People's Supermarket,"72-76 Lamb's Conduit St, London WC1N 3LP, United Kingdom",51.5226523,-0.1187293,supermarket,4,0
ChIJZzp-xpIPdkgRtZn4TIVXxnk,Tesco Superstore,"W Cromwell Rd, London W14 8PB, United Kingdom",51.4927617,-0.2010743,supermarket,4.1,1
ChIJ13iW7R0FdkgRf1SZNwruDjY,Tesco Express,"89-95 Lupus St, Pimlico, London SW1V 3EN, United Kingdom",51.487735,-0.1406493,supermarket,2.5,1
ChIJJTxGcQgFdkgRgSKmqzjZQi4,Tesco Express,"275-277 Battersea Park Rd, London SW11 4LU, United Kingdom",51.4746843,-0.1524636,supermarket,3.5,1
ChIJ03seTNIEdkgRu85v8tqVjL4,New Loon Moon Supermarket.,"9a Gerrard St, London W1D 5PN, United Kingdom",51.5120394,-0.1307,supermarket,4.3,0
ChIJ0Y8WTF8EdkgRrt-lpRqClk4,Lidl,"189 Clapham Rd, London SW9 0QE, United Kingdom",51.4735166,-0.120665,supermarket,4.2,0
ChIJG_oKOGcFdkgRWQEIaVvQ1rQ,Tesco Express,"87-93 Gloucester Rd, South Kensington, London SW7 4SS, United Kingdom",51.494311,-0.182281,supermarket,3,1
ChIJc_S1CJAGdkgRZTSrGmqNxRs,Sainsbury's,"480 Streatham High Rd, London SW16 3PY, United Kingdom",51.4195894,-0.1292515,supermarket,4.2,2
ChIJPxMdzyQEdkgRi7NaDgqT5Gg,MFC Supermarket,"45 Streatham Hill, London SW2 4TS, United Kingdom",51.4408287,-0.1249656,supermarket,4.2,0
ChIJTUMy8YQGdkgR3HjiiiT7bWU,Tesco Extra,"384 Streatham High Rd, London SW16 6HP, United Kingdom",51.4249387,-0.1312298,supermarket,3.9,1
ChIJBz4-cCgEdkgRtSH0k3i2e7g,Sainsbury's Local,"172-176 Streatham High Rd, London SW16 1BJ, United Kingdom",51.4324559,-0.1293498,supermarket,3.3,2
ChIJZfaPHiYEdkgRkR5QYr9JNx0,Londis,"84-92 Streatham High Rd, London SW16 1BS, United Kingdom",51.4352597,-0.1285079,supermarket,0,2
ChIJUaHV2ycEdkgRO1CqAizG7dg,Foodway Super Market,"Astoria Parade, Streatham High Rd, London SW16 1PR, United Kingdom",51.4327202,-0.1285635,supermarket,4.2,0
ChIJAR_fCIMGdkgRY8rpjJJgJr8,Costcutter,"Fast Food, Vvk, 300 Streatham High Rd, London SW16 6HG, United Kingdom",51.4278294,-0.1312515,supermarket,0,0
ChIJo_JpxSQEdkgRwG2FWFowGpI,Sainsbury's Local,"47a Streatham Hill, London SW2 4TS, United Kingdom",51.4405535,-0.1250127,supermarket,3.8,2
ChIJhY9r-yUEdkgRR5NihZr9Jno,Tesco Express,"50 Streatham High Rd, London SW16 1DA, United Kingdom",51.4370018,-0.1278655,supermarket,3.5,1
ChIJx6l6MIUGdkgRC7urVYMQsA8,Tanriseven Ltd,"418 Streatham High Rd, London SW16 3SN, United Kingdom",51.42222640000001,-0.1294456,supermarket,0,0
ChIJKTsICr8FdkgRrssiv4odA2k,Mieszko Streatham,"15 Streatham High Rd, London SW16 1DS, United Kingdom",51.4364037,-0.1275236,supermarket,4,0
ChIJrzOTaesGdkgRq0PD5TqBABQ,Corner Shop London,"1346 London Rd, Norbury, London SW16 4DG, United Kingdom",51.40850469999999,-0.1218165,supermarket,4.3,0
ChIJb5ymNwkHdkgRKHQqjfuy_RQ,Jawa super choice,"212 Eardley Rd, London SW16 5TF, United Kingdom",51.4179532,-0.136167,supermarket,5,0
ChIJtXH-1nsGdkgRjQDRzutZkrc,Budgens,"99-105 Moyser Rd, London SW16 6SJ, United Kingdom",51.4250925,-0.1481745,supermarket,4.1,1
ChIJ5ekSU4IGdkgRCmwlg4z_hIE,Fabulous Food & Wine,"14 Mitcham Ln, London SW16 6NN, United Kingdom",51.4283922,-0.1322733,supermarket,4.3,0
ChIJ31j8750GdkgRALktj3TLlcU,ALDI,"350 Streatham High Rd, London SW16 6HP, United Kingdom",51.4263051,-0.1314885,supermarket,4.3,1
ChIJH9OL2ScEdkgRtXIKxhLwiTY,The Rose Supermarket,"45a Streatham High Rd, London SW16 1EG, United Kingdom",51.432756,-0.1284692,supermarket,0,0
ChIJfeBuGSYEdkgRa5v2CcKYc8I,"88 -92 Westbury Food And Wine , LONDIS","88A Streatham High Rd, London SW16 1BS, United Kingdom",51.4352059,-0.1284423,supermarket,3,0
ChIJ6d_H-X0GdkgRS_yKMnnMh-4,Sainsbury's Local,"86, 88 Mitcham Ln, London SW16 6NR, United Kingdom",51.4250882,-0.1408205,supermarket,4.3,2
ChIJdUtjxSQEdkgRKtoaRHc2Rmg,Mediterranean Food Centre,"45B Streatham Hill, London SW2 4TS, United Kingdom",51.44070350000001,-0.1250629,supermarket,4.4,0
ChIJg8mW-EIEdkgREhkY7Tr6gYU,Tesco Superstore,"13 Acre Ln, Brixton Hill, London SW2 5RS, United Kingdom",51.4598197,-0.1196265,supermarket,3.8,1
ChIJf0juq2sEdkgRd7HYp6wZF5k,Sainsbury's,"2 Tulse Hill, London SW2 2TP, United Kingdom",51.4547415,-0.1139074,supermarket,4.1,2
ChIJYyvpo2gEdkgRtAcw3eSJ5kg,Lana Supermarket,"46 Atlantic Rd, London SW9 8JN, United Kingdom",51.4621396,-0.1123202,supermarket,4.2,0
ChIJZ7cyQz0EdkgRYmZ9Ez7zc7g,Lambeth Supermarket,"8-9 Coburg Cres, London SW2 3HS, United Kingdom",51.44251149999999,-0.117893,supermarket,4.8,0
ChIJlTSyVUAEdkgR-Z0OINbmo3E,Tesco Express,"144 Brixton Hill, London SW2 1SD, United Kingdom",51.4522321,-0.1217353,supermarket,3,1
ChIJQ1rc9jkEdkgRmlx-Xf7E3cs,Tesco Express,"30 Streatham Pl, Brixton Hill, London SW2 4QY, United Kingdom",51.4469355,-0.1278609,supermarket,1.7,1
ChIJlx8hyEEEdkgRgWsxAw4RpNw,Sainsbury's Local,"76 Brixton Hill, London SW2 1QW, United Kingdom",51.4554311,-0.1197094,supermarket,3.3,2
ChIJjSKNN0YEdkgRCeS-3-mUIOk,Londis,"17-20 Prague Pl, Lyham Rd, Brixton Hill, London SW2 5ED, United Kingdom",51.4551769,-0.1275799,supermarket,4.4,2
ChIJR1ikYDkEdkgR1rXoBwfMEqY,Sainsbury's Local,"266-270 Brixton Hill, London SW2 1HP, United Kingdom",51.4469742,-0.1245646,supermarket,3.4,2
ChIJYQ40oHcEdkgRBcffk74xW6I,Tesco Express,"128 Herne Hill, London SE24 9QH, United Kingdom",51.45368269999999,-0.1013258,supermarket,3.9,1
ChIJq3iK02cEdkgRvX9kOQk5IPM,Sainsbury's Local,"425 Brixton Rd, London SW9 8HE, United Kingdom",51.46281399999999,-0.114567,supermarket,3.4,2
ChIJzThWFRQEdkgRgArNi26rYkc,Tesco Esso Express,"109 Tulse Hill, London SW2 2QB, United Kingdom",51.44785479999999,-0.1125835,supermarket,3.8,1
ChIJ_eYhUmYEdkgR5G80dOzSDQA,Sainsbury's Local,"379 Brixton Rd, London SW9 7DE, United Kingdom",51.46436449999999,-0.1139491,supermarket,3.8,2
ChIJZQmYZU0EdkgRJk3V3VcGd0w,Little Waitrose & Partners Clapham Common,"5 The Pavement, London SW4 0HY, United Kingdom",51.4619289,-0.1387486,supermarket,4,2
ChIJUfbY33oEdkgROtg9ATnwUEg,Tesco Express,"242-248 Coldharbour Ln, London SW9 8SE, United Kingdom",51.46505310000001,-0.1033179,supermarket,3,1
ChIJt_vnFoAFdkgRKjhDlYpB7rE,Latin Market,"183 Stockwell Rd, London SW9 9SJ, United Kingdom",51.4656496,-0.1158883,supermarket,5,0
ChIJezZ-ITkEdkgRBAZ74qazYeo,Happy Shopper Neway Supermarket,"31 New Park Rd, Brixton Hill, London SW2 4DU, United Kingdom",51.448016,-0.1258647,supermarket,4.3,0
ChIJaazfnmEEdkgRDHeM3-boCkg,Low Price Food & Wine,"274A Brixton Rd, London SW9 6AG, United Kingdom",51.4706412,-0.1127792,supermarket,4.3,0
ChIJG_9hwIsEdkgR1CYmgk3GSB8,Tesco Express,"Russell Hotel, Brixton Rd, Vassal, London SW9 6BD, United Kingdom",51.47666150000001,-0.1128123,supermarket,2.9,1
ChIJ83ii0PQEdkgRcI0mofXQBtQ,Tesco Express,"131-143 Clapham Rd, Vassal, London SW9 0HR, United Kingdom",51.4759963,-0.1181055,supermarket,3.1,1
ChIJ6R0rMWEEdkgRj1XXvTl-IwM,Tesco Esso Express,"330 Brixton Rd, London SW9 7AA, United Kingdom",51.4685707,-0.1128716,supermarket,3.5,1
ChIJFTaN4VgEdkgR-Jj-078SObc,Sainsbury's Local,"314, 318 Clapham Rd, London SW9 9AE, United Kingdom",51.4704497,-0.1250652,supermarket,3.5,2
ChIJ17G7fWgEdkgRQKtUOJiF80s,Wing Tai Brixton,"13 Electric Ave, London SW9 8JY, United Kingdom",51.462142,-0.1142379,supermarket,4.2,0
ChIJfxl-ZEQEdkgRwN-Mc86lDuM,Lidl,"71-73 Acre Ln, Brixton Hill, London SW2 5TN, United Kingdom",51.4594562,-0.1237939,supermarket,4.1,0
ChIJkU-AwlgEdkgRzE_m9hoRoz8,Costcutter,"258 Clapham Rd, London SW9 9AE, United Kingdom",51.4721577,-0.122946,supermarket,3.8,1
ChIJH5mXd08BdkgR-JIPtQ6fQBM,Sainsbury's,"66 Westow St, London SE19 3RW, United Kingdom",51.4178952,-0.0826354,supermarket,3.8,2
ChIJ8boetEMBdkgRvYMjqtsq7qk,Tesco Express,"72 Anerley Rd, London SE19 2AH, United Kingdom",51.4169428,-0.07360119999999999,supermarket,3.7,1
ChIJGQwvLjwBdkgRv70_FWiC2Xo,Budgens,"207 Gipsy Rd, Norwood, London SE27 9QY, United Kingdom",51.427068,-0.0887535,supermarket,3.8,1
ChIJPVuGw08BdkgRNvhvQqH_zII,Costcutter,"248 Gipsy Rd, Norwood, London SE27 9RB, United Kingdom",51.42769269999999,-0.0862824,supermarket,4.2,1
ChIJDWATbKUGdkgRoKw3wS2WsF4,Lidl,"411 Beulah Hill, Norwood, London SE19 3UZ, United Kingdom",51.4221358,-0.1063317,supermarket,4.2,0
ChIJqcEkdaUGdkgR0t22lKZkPSE,Tesco Express,"4 Crown Ln, Norwood, London SW16 3JG, United Kingdom",51.42291909999999,-0.1067253,supermarket,3.7,1
ChIJ8VKu94IBdkgRpS2cy0ZYVvg,Palace local,"40 Anerley Hill, London SE19 2AE, United Kingdom",51.4180137,-0.0744151,supermarket,5,0
ChIJU49txE8BdkgRf3qZMyeAHr4,Co-op Food - Central Hill,"15-17 Central Hill, Gipsy Hill, London SE19 1BG, United Kingdom",51.4195213,-0.0837608,supermarket,3.1,0
ChIJu_zHSrUGdkgRLDqIDyBlUR0,Off Licence + Oyster + Cashpoint,"106 Spa Hill, London SE19 3TZ, United Kingdom",51.4111868,-0.0936664,supermarket,4.2,0
ChIJQaOyB7kGdkgRBPDnety5m2w,Sara Food and Wine,"Bigginwood Cottages, 3, St. Oswalds Rd, London SW16 3SD, United Kingdom",51.4133027,-0.1061479,supermarket,4.4,0
ChIJjcoRAGIBdkgRyIFELf0UGkg,WELLSPARK SUPERMARKET,"74-76 Wells Park Rd, London SE26 6JJ, United Kingdom",51.4308947,-0.06430659999999999,supermarket,4.2,0
ChIJN06cKS4BdkgRol-X16f5j78,Sainsbury's,"120-122 Whitehorse Ln, London SE25 6XB, United Kingdom",51.398613,-0.0869331,supermarket,4.1,2
ChIJJepfEwMEdkgRty_TSi-gBrI,Tesco Express,"1-5 Croxted Rd, Norwood, London SE21 8SZ, United Kingdom",51.4362065,-0.0908022,supermarket,3.8,1
ChIJt1VSpjwBdkgRQMITXZWkHG0,Tesco Express,"1-9 S Norwood Hill, London SE25 6AA, United Kingdom",51.3997177,-0.0753607,supermarket,3.1,1
ChIJMx5e_4EBdkgRkbb--JV_Rp4,Shakthi Supermarket London,"5 Sydenham Rd, London SE26 5EZ, United Kingdom",51.42659399999999,-0.054095,supermarket,4.2,0
ChIJ-ZMIcXEBdkgRt_XYJ32OYB0,Tesco Express,"74 High St, London SE20 7EX, United Kingdom",51.4160356,-0.0549943,supermarket,3.2,1
ChIJS7MWHAMEdkgR2YdLZCdXmfo,Tesco Express,"W, 551 Norwood Rd, Norwood, London SE27 9DL, United Kingdom",51.43384649999999,-0.1033239,supermarket,3.3,1
ChIJadS1J4wEdkgRCrQxqf80HMg,Low Cost Supermarket,"28 Brixton Rd, London SW9, United Kingdom",51.4800485,-0.1115868,supermarket,0,0
ChIJRT5LV0QEdkgRfTlWB206cEk,Costcutter,"97 Acre Ln, Brixton Hill, London SW2 5TU, United Kingdom",51.4594534,-0.1252675,supermarket,2,1
ChIJO6LvFXMEdkgRow7bUIRikho,Sainsbury's Local,"132a Herne Hill, London SE24 9QH, United Kingdom",51.4533452,-0.1013189,supermarket,3.8,2
ChIJWZBeuG8EdkgRp7PhNx1Zw3M,Moorlands Grocery Convenience Store,"52 Corry Dr, London SW9 8QT, United Kingdom",51.4601044,-0.1069165,supermarket,4.2,0
ChIJA7ztfIADdkgR9alvAWsb9B4,Costcutter,"122 Denmark Hill, London SE5 8RX, United Kingdom",51.4704896,-0.0931067,supermarket,3.6,1
ChIJZVJOlfkEdkgRxFcUwAvFTPI,Day 1,"182 Wandsworth Rd, London SW8 2LA, United Kingdom",51.4765393,-0.1305656,supermarket,4.4,0
ChIJgfpYZe4EdkgRQSo_dspi9nw,Little Waitrose & Partners Vauxhall,"3 Bondway, London SW8 1SJ, United Kingdom",51.4853414,-0.1240337,supermarket,4.1,2
ChIJ-1fkefoEdkgR9OKdXWakSQ0,Sainsbury's,"62 Wandsworth Rd, Nine Elms, London SW8 2LF, United Kingdom",51.4807631,-0.1281256,supermarket,4.3,2
ChIJTUW1kAYFdkgR-Vs5n_AX8EM,Little Waitrose & Partners Battersea,"326 Queenstown Rd, Nine Elms, London SW8 4NE, United Kingdom",51.4783528,-0.148085,supermarket,3.9,2
ChIJN93RJ_sEdkgRC_pIdhe5k98,Waitrose & Partners Battersea - Nine Elms,"1 New Union Square, Nine Elms, London SW11 7DN, United Kingdom",51.4824493,-0.1349409,supermarket,4.3,2
ChIJ3VIiVu4EdkgRh-e27394yFk,Tesco Express,"16, 22 Wandsworth Rd, London SW8 2JW, United Kingdom",51.485011,-0.1260491,supermarket,3.8,1
ChIJ9WgNuvkEdkgRx35Dktf57UI,Tesco Express,"202-230 Wandsworth Rd, London SW8 2JU, United Kingdom",51.4753207,-0.1319902,supermarket,2.4,1
ChIJBaHslPgEdkgR8-SD_LS8V70,Costcutter,"262-264 Wandsworth Rd, Nine Elms, London SW8 2JS, United Kingdom",51.4742731,-0.1328497,supermarket,3.9,1
ChIJyQVUGK8FdkgR30cZetR_oEw,Tesco Express,"827-833 Wandsworth Rd, London SW8 3JL, United Kingdom",51.46621990000001,-0.1499502,supermarket,3.5,1
ChIJhxQSre8EdkgRwO4IjFRi70Y,Vauxhall Express,"16, 22 Wandsworth Rd, Nine Elms, London SW8, United Kingdom",51.48496919999999,-0.1260439,supermarket,0,0
ChIJ3SDX4O0EdkgRPmYG4S15P-s,Sainsbury's Local,"7-11 S Lambeth Pl, London SW8 1SP, United Kingdom",51.4861152,-0.1230653,supermarket,3.6,2
ChIJnb6yI68FdkgRe2b0GCx9QDs,Sainsbury's Local,"646-650 Wandsworth Rd, London SW8 3SB, United Kingdom",51.4664702,-0.1502295,supermarket,3.8,2
ChIJndhlBf0EdkgRRSlIEkbDBUw,Sainsbury's Local,"Tideway Industrial Estate, Nine Elms, London SW8 5BP, United Kingdom",51.481353,-0.1385358,supermarket,3.4,2
ChIJ1cD9TfgEdkgRgjMG82bQT5c,Londis,"347 Wandsworth Rd, London SW8 2JH, United Kingdom",51.47525460000001,-0.1312564,supermarket,0,2
ChIJBaHslPgEdkgRRCsIsp7a1Ys,Cheung's Oriental,"270 Wandsworth Rd, Nine Elms, London SW8 2JR, United Kingdom",51.474118,-0.1330205,supermarket,4.6,0
ChIJ_c6UA2oFdkgR3c_TOUtwv_0,Shop and Go,"61 Bondway, London SW8 1SJ, United Kingdom",51.4844734,-0.1245488,supermarket,4.1,0
ChIJTVZXMasFdkgRd3Jwu7zrmoE,Quick Stop Super Store,"595 Wandsworth Rd, London SW8 3JD, United Kingdom",51.46932469999999,-0.1411148,supermarket,4.3,0
ChIJsfLLG_8EdkgReQduQ8aQg-8,Londis,"8-10 Condell Rd, Nine Elms, London SW8 4JA, United Kingdom",51.474998,-0.136989,supermarket,3,2
ChIJvWTxTM4EdkgRY2f_V0GXNgI,Tesco Express,"1-4, London SW1A 2DR, United Kingdom",51.5072099,-0.1271501,supermarket,3.6,1
ChIJoz38IhoFdkgR_8RSmgKf8lI,Sainsbury's Local,"1 Gatliff Rd, London SW1W 8DT, United Kingdom",51.48823549999999,-0.1507196,supermarket,4.1,2
ChIJAV0Ng1AEdkgRGAf_0ayzx20,Sainsbury's Local,"399, 407 Clapham Rd, London SW9 9BT, United Kingdom",51.46555040000001,-0.1290767,supermarket,3.5,2
ChIJ2V3RKZEFdkgRJhIClS75Qv8,Sainsbury's Local,"33 Clapham High St, London SW4 7TP, United Kingdom",51.46407139999999,-0.1313589,supermarket,2.2,0
ChIJPV1rUV8EdkgRDBMrEnUjn4M,Sainsbury's Local,"2A, 2D Binfield Rd, London SW4 6TA, United Kingdom",51.4727745,-0.1228217,supermarket,3.7,2
ChIJH0T6-f0EdkgR9j8v618irGc,Costcutter,"180 Thessaly Rd, Nine Elms, London SW8 4ED, United Kingdom",51.4790944,-0.1408255,supermarket,3.6,1
ChIJha_QlT0FdkgRqNSfYiJMUwk,Battersea General St,"Power Station, Units 9 & 10, Circus Rd W, London SW11 8EZ, United Kingdom",51.48240389999999,-0.145941,supermarket,4.3,0
ChIJ-dUjHg4EdkgRxTTV3AVn6jg,Maxy Supermarket,"4-6 Norwood Rd, Norwood, London SE24 9BH, United Kingdom",51.4464075,-0.1050605,supermarket,4,0
ChIJ3fdOcHIEdkgRu_ElZ_ABBsI,Hamilton Supermarket,"128 Railton Rd, London SE24 0JX, United Kingdom",51.455642,-0.105059,supermarket,4.4,0
ChIJwdSd2H0FdkgR4seCkSVITDU,Budgens,"Budgens, Half Moon Ln, London SE24 9JY, United Kingdom",51.4533383,-0.0940225,supermarket,4,0
ChIJoydiJHMEdkgRUX5M2ReUpVg,I A A Supermarket,"309 Railton Rd, London SE24 0JN, United Kingdom",51.4528335,-0.1020524,supermarket,3,0
ChIJ0fLg03UEdkgRpKDRb29OJr0,Londis,"71 Herne Hill, London SE24 9NE, United Kingdom",51.4568006,-0.09622159999999999,supermarket,4,2
ChIJc3BsFgwEdkgR4R07e6qsxvA,Andreas Haralambous Grocer,"268 Rosendale Rd, Norwood, London SE24 9DL, United Kingdom",51.447703,-0.1007249,supermarket,4.9,0
ChIJV8xbEQwEdkgRmgqrU7kOow4,Tk Food & Wine,"264 Rosendale Rd, Norwood, London SE24 9DL, United Kingdom",51.4476303,-0.1005531,supermarket,3.9,0
ChIJx0og_YgDdkgR11FsbfnivsM,Anijh Supermarket,"20 Crossthwaite Ave, London SE5 8ET, United Kingdom",51.4598662,-0.0902302,supermarket,4.2,0
ChIJXSBsAcIDdkgRp_WR1KN5xEU,Tesco Express,"125 Denmark Hill, London SE5 5EJ, United Kingdom",51.4669227,-0.0904478,supermarket,3.2,0
ChIJ86KhV38EdkgR71AeZs9_mw4,M&S Food To Go,"Denmark Hill, London SE5 9RS, United Kingdom",51.4678774,-0.0945103,supermarket,4.3,2
ChIJyf8ptAwEdkgR6SD26ZVMmPs,Costcutter - Herne Hill,"31-39 Norwood Rd, London SE24 9AA, United Kingdom",51.451814,-0.1010379,supermarket,3.9,1
ChIJKdW8oJoDdkgRcOld9uGQAh4,Sainsbury's,"80 Dog Kennel Hill, London SE22 8BB, United Kingdom",51.4619866,-0.0848729,supermarket,4.2,2
ChIJXahD6X4EdkgR_vq0kIuEZgI,Budgens,"112-114 Coldharbour Ln, London SE5 9PZ, United Kingdom",51.4692479,-0.097754,supermarket,3.9,0
ChIJxxkb0ESq2EcREjx4zWDkmLs,Tesco Superstore,"Homesdale Rd, Bromley BR1 2UE, United Kingdom",51.4000678,0.0316809,supermarket,3.9,1
ChIJG1w_PQyq2EcRtYUFDfB9E9w,Londis Bromley - London Road,"108 London Rd, Bromley BR1 3RL, United Kingdom",51.41316,0.008202599999999999,supermarket,4.3,2
ChIJwXAc7Ryq2EcRm6mNWuSr7Ps,Londis,"414 Downham Way, Bromley BR1 5HR, United Kingdom",51.4271259,0.0138736,supermarket,5,2
ChIJAavDu22q2EcR7MMsxOWeWr0,Sainsbury's,"Walters Yard, Bromley BR1 1TP, United Kingdom",51.4066316,0.0144762,supermarket,4.1,2
ChIJEc5KI_6r2EcRO2mG2ZMR4Gc,Sainsbury's Local,"37/41 High St, London, Bromley BR1 1LE, United Kingdom",51.40130509999999,0.0167742,supermarket,4,0
ChIJK90k912r2EcR050PfeVUUGA,Mixta,"230 High St, Bromley BR1 1PQ, United Kingdom",51.40638449999999,0.012733,supermarket,5,0
ChIJiXeMYFSr2EcRbWSRaUvuIho,Lidl,"126 High St, Bromley BR1 1EZ, United Kingdom",51.4040373,0.0145788,supermarket,4.3,0
ChIJqVlXvN2r2EcRiKCHktWQUDU,Lidl,"129 Burnt Ash Ln, Bromley BR1 5AB, United Kingdom",51.4210905,0.0210852,supermarket,4.2,0
ChIJBVNdriEDdkgRb64FhQhVo7s,Tesco Extra,"Surrey Quays Shopping Centre, Redriff Rd, London SE16 7LL, United Kingdom",51.494544,-0.04603860000000001,supermarket,3.7,1
ChIJLbhMkloddkgR1RsA2-sf3Co,Tesco Superstore,"Hancock Rd, Bow, London E3 3DA, United Kingdom",51.5266315,-0.0097847,supermarket,4,1
ChIJX9osis8FdkgRkiL2NFYlzGk,Tesco Express,"3A Palmer Rd, Nine Elms, London SW11 4FA, United Kingdom",51.478254,-0.1463593,supermarket,3.8,0
ChIJ85Nej5gFdkgRrF88JT4V55w,Asda Clapham Junction Superstore,"204 Lavender Hill, London SW11 1JG, United Kingdom",51.465371,-0.164962,supermarket,3.8,1
ChIJy-5Fdk0EdkgRYx0FxbSTZaQ,Tesco Superstore,"128 Clapham Common South Side, London SW4 9DF, United Kingdom",51.45330990000001,-0.1466471,supermarket,3.5,1
ChIJUaAPClIEdkgRS32Y0jqbkZc,Sainsbury's,"133 Clapham High St, London SW4 7SL, United Kingdom",51.4621526,-0.1357942,supermarket,4.1,2
ChIJuTj9Na0FdkgRZIPYKgET6Lc,Sainsbury's Local,"53 Old Town, London SW4 0JQ, United Kingdom",51.4636478,-0.1409335,supermarket,3.4,2
ChIJ8-7yoDcEdkgR27obgTLGJJ8,Sainsbury's Local,"2 Mullins Pl, London SW4 8EU, United Kingdom",51.449397,-0.130865,supermarket,3.4,2
ChIJiXtsE00EdkgRKo6WvogTHN4,Southside Supermarket,"21 Clapham Common South Side, London SW4 7AB, United Kingdom",51.4609519,-0.1388353,supermarket,1.3,0
ChIJx7GwHEwEdkgRSVoeyWCMU-k,Fresh Look Supermarket,"175 Abbeville Rd, London SW4 9JJ, United Kingdom",51.4578321,-0.135155,supermarket,3.3,0
ChIJf12Ofk0EdkgRb74R5IoEus8,Londis,"192-194 Clapham High St, London SW4 7UD, United Kingdom",51.462174,-0.137834,supermarket,3,2
ChIJsZ5FnbQFdkgRKJhsHI5RrvA,Costcutter,"70 Clapham Common South Side, London SW4 9DA, United Kingdom",51.45616949999999,-0.1439236,supermarket,2.3,1
ChIJ7zu42UoEdkgRKBMFlNkdnlU,Sainsbury's Local,"36-38 Abbeville Rd, London SW4 9NG, United Kingdom",51.4542438,-0.1398174,supermarket,3.9,2
ChIJubWY2ZkFdkgR9FmW8p3N42E,Waitrose & Partners Clapham,"40-44 St John's Rd, London SW11 1PW, United Kingdom",51.4626331,-0.167787,supermarket,4,2
ChIJv84oG7YFdkgRjYjUHJKuIWE,Sainsbury's Local,"21 Balham Hill, London SW12 9DY, United Kingdom",51.45242080000001,-0.1474145,supermarket,2.8,2
ChIJLxMdNpgFdkgR1xsHdQIvyfE,Whole Foods Market,"305-311 Lavender Hill, London SW11 1LN, United Kingdom",51.4637517,-0.1665195,supermarket,4.2,3
ChIJLQMs6FUEdkgRWY6IYJyQzBk,Quick Stop Supermarket,"473-475 Wandsworth Rd, London SW8 4NX, United Kingdom",51.4715353,-0.1360021,supermarket,4.2,0
ChIJwXWpsX0FdkgRRPfgBDVHcX0,Tesco Superstore,"Kennington Ln, London SE11 5QU, United Kingdom",51.486827,-0.114768,supermarket,2.4,0
ChIJsbATyGUFdkgRO_z_5vJ130s,Sainsbury's Local,"295-297 Fulham Rd., London SW10 9PZ, United Kingdom",51.4871401,-0.1787512,supermarket,3.6,2
ChIJl0HVJWMFdkgRxS8X4SaNU8A,Sainsbury's Local,"West Brompton, London SW10 9EW, United Kingdom",51.48412889999999,-0.1845552,supermarket,3.9,2
ChIJ1aNJni8FdkgROGp7Re1tknc,CO OPERATIVE SUPERMARKET,"King's Rd, London SW10 0LR, United Kingdom",51.4816168,-0.1812959,supermarket,3.3,0
ChIJG6ETuWcFdkgR7YUFGUrkqxQ,Little Waitrose & Partners Old Brompton Road,"103 Old Brompton Rd, South Kensington, London SW7 3RD, United Kingdom",51.4922599,-0.1775513,supermarket,4.2,2
ChIJ7SvC-VIFdkgR31hxe65Zh0A,London Supermarket,"21 Craven Terrace, London W2 3QH, United Kingdom",51.51251509999999,-0.1786352,supermarket,5,0
ChIJVdONY0QFdkgRdEklaflQFHc,Costcutter Knightsbridge,"13 Prince's Gardens, London SW7 1NA, United Kingdom",51.4997955,-0.1721549,supermarket,3.9,1
ChIJu4qXa2MFdkgRCrAo4ryiYnE,Tesco Express,"248 Fulham Rd., London SW10 9NA, United Kingdom",51.4849499,-0.1832387,supermarket,3.7,1
ChIJI7h_SjcbdkgR5e7PGYkDOkM,Waitrose & Partners Bloomsbury,"The Brunswick Centre, 23-39 Handel St, London WC1N 1JX, United Kingdom",51.525,-0.124116,supermarket,4.2,2
ChIJC4fvXa8EdkgRQX1Mjup8vOQ,Tesco Express,"15 Great Suffolk St, London SE1 0NZ, United Kingdom",51.50498839999999,-0.1011968,supermarket,3.5,1
ChIJWZUYzbEEdkgRByHSu2moiIo,Little Waitrose & Partners South Bank Tower,"Unit 10b, South Bank Tower, London SE1 9LS, United Kingdom",51.5073619,-0.1058356,supermarket,4.2,2
ChIJXVYxV0UDdkgRmfyCoFmLj1A,Tesco Express,"125 Tooley St, London SE1 2RS, United Kingdom",51.50431,-0.08161159999999999,supermarket,3.9,1
ChIJCV_ePF0DdkgRGoQ-cErZy4I,Tesco Express,"67-69 Tower Bridge Rd, London SE1 4TL, United Kingdom",51.4959499,-0.08337250000000002,supermarket,3.7,1
ChIJ714EQKMEdkgRJFG5MrwaRgE,Superway Supermarket,"16 London Rd, Elephant and Castle, London SE1 6JZ, United Kingdom",51.4977071,-0.1038396,supermarket,3.8,0
ChIJVxwXPLoEdkgRnSW6kpRavs8,Tesco Express,"103-107 Waterloo Rd, London SE1 8UL, United Kingdom",51.502927,-0.110395,supermarket,3.5,1
ChIJq7pi-GsDdkgR6azWnuyKtz8,Tesco Superstore,"107 Dunton Rd, London SE1 5HG, United Kingdom",51.4887965,-0.0760057,supermarket,3.7,1
ChIJgduAH20DdkgRox5ZmmLC6cw,ROJ International Food London,"430-432 Old Kent Rd, London SE1 5PG, United Kingdom",51.4859309,-0.0719016,supermarket,4.3,0
ChIJkyR9-KMEdkgRxVDAY1Pgdfg,Tesco Express,"44-46 Borough Rd, London SE1 0AJ, United Kingdom",51.4992411,-0.1003728,supermarket,3.5,1
ChIJN-otHFkDdkgRBDZZjKeQYWc,Tesco Express,"34 Long Ln, Tabard St, London SE1 4AU, United Kingdom",51.5009574,-0.09115269999999999,supermarket,3.9,1
ChIJt1KjTqUEdkgRDGKL7CkDy1Q,Tesco Express,"3-11 The Cut, London SE1 8JZ, United Kingdom",51.5035002,-0.1051836,supermarket,3.9,1
ChIJhR0mxaEEdkgRUwPIkCi0h0g,Sainsbury's,"40 New Kent Rd, Elephant and Castle, London SE1 6TJ, United Kingdom",51.494569,-0.0977622,supermarket,4.2,2
ChIJFQ7rM1gDdkgRcr0XjQsgIyw,Tesco Express,"127-143 Borough High St, London SE1 1NP, United Kingdom",51.5034662,-0.0911572,supermarket,3.2,1
ChIJ09pxgF8DdkgRAD-0yBp2Jxk,Blue Moon Supermarket London,"38-40 Harper Rd, London SE1 6AD, United Kingdom",51.4965145,-0.0937597,supermarket,4.3,0
ChIJY5p7fmgDdkgRDY9MQ67WiHw,Iman International Supermarket,"157-163 Old Kent Rd, London SE1 5UT, United Kingdom",51.4915288,-0.0817624,supermarket,3.4,0
ChIJOwteoqQEdkgRpWz-zYg9Zmo,Tesco Express,"Unit 1, Blackfriars Circus, London SE1 8EQ, United Kingdom",51.50033879999999,-0.1043142,supermarket,3.3,1
ChIJi3p-67oEdkgRyKX7KXIBgBc,Sainsbury's Local,"55A The Cut, London SE1 8LL, United Kingdom",51.5029005,-0.1074582,supermarket,3.5,2
ChIJAX2ZzL4EdkgR02c-VfXN9qA,Costcutter,"97-99 Westminster Bridge Rd, London SE1 7HR, United Kingdom",51.4990143,-0.1129118,supermarket,3.5,1
ChIJoas_aq8EdkgRPfzZ21Ax6YI,Sainsbury's Local,"Great Suffolk St, London SE1 0UG, United Kingdom",51.5052199,-0.1014234,supermarket,3.6,2
ChIJgfmaaVgDdkgRcizZ4y9J78A,Sainsbury's Local,"116-126 Borough High St, London SE1 1LB, United Kingdom",51.5028634,-0.09225839999999999,supermarket,3.6,2
ChIJxdVRDGsEdkgRNcRDEHSmmdM,Super Save,"39-41 Tulse Hill, London SW2 2TJ, United Kingdom",51.4540736,-0.1129209,supermarket,3.8,0
ChIJydWZGNgFdkgRK5-SvzdYFhA,OurSuperMarket.com | Arabic Turkish Supermarket in UK سوبر ماركت عربي بريطانيا,"100 Westminster Bridge Rd, London SE1 7XA, United Kingdom",51.4988247,-0.1109047,supermarket,5,0
ChIJ58STZLkEdkgRRiCJYxJEZoU,Greensmiths,"27 Lower Marsh, London SE1 7RG, United Kingdom",51.5009256,-0.1123841,supermarket,4.6,0
ChIJQelqwxUDdkgRxluMdNxDewk,St James Super Market London,"191 Southwark Park Rd., London SE16 3TX, United Kingdom",51.49243310000001,-0.0653786,supermarket,4.5,0
ChIJj3482l8DdkgR8WL4Lp5ZnnM,Tesco Express,"157 New Kent Rd, London SE1 4AG, United Kingdom",51.4943918,-0.0926569,supermarket,3.2,1
ChIJ372RKJoFdkgRhM0qj0mPFm4,Tesco Express,"29-33 Battersea Rise, London SW11 1HG, United Kingdom",51.4608192,-0.1639521,supermarket,3.7,1
ChIJzXz2vcgPdkgRldtDi2D8y-Q,Tesco Superstore,"180 Shepherds Bush Rd, London W6 7NL, United Kingdom",51.4976864,-0.2239752,supermarket,3.9,1
ChIJ_1e1OtMEdkgRQBWTjNRRVJM,Tesco Express,"Dean St, London W1D 3RF, United Kingdom",51.5155153,-0.1335336,supermarket,4.1,1
ChIJ07__l_UEdkgRTDAxIxV0gNw,Delicatessen Serrana,"224 Clapham Rd, London SW9 0PZ, United Kingdom",51.4745684,-0.1203316,supermarket,4.5,0
ChIJpblDxlgEdkgR9JynWduat6Y,Brazilian Centre STOCKWELL,"284 Clapham Rd, London SW9 9AE, United Kingdom",51.4714068,-0.1239335,supermarket,4.5,0
ChIJQasMIbYFdkgRAI7k8LlXwKk,M&S Simply Food,"435 Balham Hill, Moor Road, London SW12 9EA, United Kingdom",51.4520697,-0.1481823,supermarket,4.1,2
ChIJ3a2Vwp4DdkgRTqBkk7pmtD8,Sainsbury's Local,"1A Queen Elizabeth St, London SE1 2PL, United Kingdom",51.50300499999999,-0.077306,supermarket,3.8,2
ChIJeR-07l4DdkgR4u63cw9dUVo,Sainsbury's Local,"58 Great Dover St, London SE1 4YF, United Kingdom",51.4974976,-0.089901,supermarket,3.6,2
ChIJnf_0t0AFdkgRe-vc9vFi8tc,Sainsbury's Local,"DE, West Brompton Road London SW10 9EW SW10 9EW, United States",51.49847740000001,-0.1657939,supermarket,5,0
ChIJa5wedTwFdkgRWhKOkEWR1os,Waitrose & Partners Belgravia,"27 Motcomb St, London SW1X 8GG, United Kingdom",51.4989916,-0.1567289,supermarket,4.3,2
ChIJ3UWX7x8FdkgRBhC4nV7BSqo,Sainsbury's,"99 Wilton Rd, Pimlico, London SW1V 1DT, United Kingdom",51.492908,-0.1410125,supermarket,4.2,2
ChIJU-i5DHQ0cEERcQQ_n3e-npc,Little Waitrose & Partners Pimlico,"19-21 Warwick Way, Pimlico, London SW1V 1QT, United Kingdom",51.492489,-0.1395128,supermarket,4.2,2
ChIJqRWLS1YFdkgR1lObxzzg5iw,Tesco Express,"22-29 Albert Embankment, London SE1 7TJ, United Kingdom",51.49064869999999,-0.1222749,supermarket,4.4,0
ChIJwxyRzqkFdkgRzuOxhlbCSHE,Queenstown Express,"175 Queenstown Rd, London SW8 3RW, United Kingdom",51.4719657,-0.1489672,supermarket,4.1,2
ChIJcyphTesEdkgRM--lYus8jN0,Alish Grocers,"30 Vauxhall St, London SE11 5LG, United Kingdom",51.4893144,-0.1174372,supermarket,4.7,0
ChIJpfb0QpkFdkgRFjxW6pmX4SQ,Lidl,"Falcon Ln, London SW11 2LG, United Kingdom",51.4649493,-0.1671165,supermarket,4.2,0
ChIJS7HZQH8FdkgRWaHoNf_zXz4,Tesco Express,"Imperial Wharf, Townmead Rd, London SW6 2TW, United Kingdom",51.4740287,-0.1829819,supermarket,3.5,1
ChIJKUGlOOAEdkgR0fy8L1Ezyvg,Tesco Express,"18-28 Warwick Way, Pimlico, London SW1V 1RX, United Kingdom",51.4922987,-0.1392465,supermarket,3.3,1
ChIJCYx15ZkEdkgR9Ek7fYbK8fI,Tesco Express,"38-40 Kennington Park Rd, London SE11 4RS, United Kingdom",51.4895923,-0.105131,supermarket,2.7,1
ChIJO4_ngpYEdkgRDC5ELkHrvyE,Tesco Express,"216 Kennington Rd, London SE11 6HR, United Kingdom",51.48992130000001,-0.1114637,supermarket,3.8,1
ChIJYR2ouY0EdkgReAQ84qxilo4,Pay Less London,"334 Kennington Park Rd, London SE11 4PP, United Kingdom",51.48118660000001,-0.1132226,supermarket,3.1,0
ChIJzTpRmr4EdkgRbV2ensoOu7I,Xtra Save Supermarket,"38-40 Kennington Rd, London SE1 7BL, United Kingdom",51.49734780000001,-0.1121127,supermarket,4,0
ChIJp9vs4pcEdkgRPuMfrhq0Kak,Brook Drive Supermarket,"114 Brook Dr, London SE11 4TQ, United Kingdom",51.49386190000001,-0.1064115,supermarket,3.9,0
ChIJL__eeJ4EdkgR0f6nChxr_mM,Tesco Express,"224-226 Walworth Rd, London SE17 1JE, United Kingdom",51.48872859999999,-0.0962185,supermarket,3.5,1
ChIJ3SLIOIAEdkgRjoGLZg4Ullg,Tesco Express,"316-322 Camberwell New Rd, London SE5 0RW, United Kingdom",51.4746079,-0.09494419999999999,supermarket,3.2,1
ChIJR6U68HcDdkgRyzcuwMslu9o,Sainsbury's Local,"37, 41 Peckham Rd, London SE5 8UH, United Kingdom",51.4739841,-0.0810828,supermarket,3.7,2
ChIJ54zmUXcDdkgRp7WOOKn2I38,Tesco Express,"191-199 Southampton Way, London SE5 7EJ, United Kingdom",51.4777958,-0.08140019999999999,supermarket,2.9,1
ChIJLdw1938DdkgRBF4dEvKgtjc,Morrisons,"butterfly walk, London SE5 8RR, United Kingdom",51.472721,-0.09139599999999999,supermarket,3.8,2
ChIJTQoVqGIDdkgR6zv3fzOJaoE,Cost Less Supermarket,"23-25 Camberwell Rd, London SE5 0EY, United Kingdom",51.4839375,-0.093746,supermarket,3.8,1
ChIJ9_DXV50EdkgRyZSHIR3r3QE,Costcutter,"169 Camberwell Rd, London SE5 0HB, United Kingdom",51.4797102,-0.0939922,supermarket,4.3,1
ChIJqX_2jrADdkgRpBcN_-ALU-U,Lidl,"56-64 Denmark Hill, London SE5 8RZ, United Kingdom",51.4727219,-0.0932947,supermarket,4.2,0
ChIJQZwh_38DdkgRr9YnPgXtJhg,DENMARK FOOD AND WINE,"74 Denmark Hill, London SE5 8RZ, United Kingdom",51.4722915,-0.0932788,supermarket,3.6,0
ChIJHzgd_X8DdkgRgFf--obMOo8,The Co-operative,"28-32 Denmark Hill, London SE5 8RZ, United Kingdom",51.47346839999999,-0.09361509999999999,supermarket,0,0
ChIJaw-L1lADdkgRZ0wcGLh3DR0,Best Supermarket,"157-163 Old Kent Rd, London SE1 5UT, United Kingdom",51.4915288,-0.0817624,supermarket,5,0
ChIJDaWEnZ0EdkgRwa2Qcpliou0,Oli Food Centre,"Unit 2, 332-334 Walworth Rd, London SE17 2NA, United Kingdom",51.4858634,-0.0944025,supermarket,4.5,0
ChIJg613SG0DdkgR-uNATcMOpak,Asda Old Kent Road Superstore,"464 - 504 Old Kent Rd, London SE1 5AG, United Kingdom",51.4844027,-0.0697671,supermarket,3.4,1
ChIJS_SR2GgDdkgR_i4buZlyfJc,G & F Supermarket,"272 Old Kent Rd, London SE1 5UB, United Kingdom",51.48891219999999,-0.0783184,supermarket,4.2,0
ChIJR8qlgl8DdkgR_WUQ3d_GPM4,M&S Simply Food,"Waterloo Road Opposite Platform 6 & 7, 30 High Town, Waterloo Rail Station, London SE1 7LY, United Kingdom",51.5030203,-0.1128883,supermarket,3.6,2
ChIJZ2lvMEMDdkgR5S3Nve1aQag,Sainsbury's Local,"13-14 Bermondsey Square, London SE1 3UN, United Kingdom",51.49746469999999,-0.0805743,supermarket,3.7,2
ChIJUYnUyqgFdkgRyf33QpkzNJw,Costcutter,"41 Queenstown Rd, London SW8 3RE, United Kingdom",51.4676338,-0.1507839,supermarket,1.8,1
ChIJn0DHD2wFdkgRaBm_fVWruR0,Here Organic Warehouse Ltd,"The Chelsea Farmers Market, 125 Sydney St, London SW3 6NR, United Kingdom",51.488321,-0.169627,supermarket,2.4,0
ChIJMTxUjiwbdkgRBoc1vy77iv4,Waitrose & Partners Oxford Street - JL Foodhall,"JL Food Hall, 300 Oxford St, London W1A 1EX, United Kingdom",51.5150927,-0.1450928,supermarket,4.5,2
ChIJEVVNPV4FdkgR3Lfq2Ap3wIw,Waitrose & Partners Gloucester Road,"128 Gloucester Rd, South Kensington, London SW7 4SF, United Kingdom",51.4945658,-0.1833558,supermarket,4.1,2
ChIJt_eDESUEdkgRwWnge1In8Ic,M&S Foodhall,"Streatham Hill Queen Street 13-18, London SW2 4RS, United Kingdom",51.439372,-0.126443,supermarket,4.3,2
ChIJFZRW-kUEdkgRzc8ftY2Q5Ns,Screwfix,"Ellerslie Square Industrial Estate, 11 Lyham Rd, Brixton Hill, London SW2 5DZ, United Kingdom",51.45824349999999,-0.1281324,supermarket,4.3,1
ChIJVXBGmLQEdkgRb9qpe_aOFyk,Tesco Express,"231-232 Strand, Temple, London WC2R 1DA, United Kingdom",51.5135055,-0.11212,supermarket,3.7,1
ChIJQYoOwWcEdkgRb8GILmpslXg,Marks and Spencer,"446 Brixton Rd, London SW9 8ED, United Kingdom",51.4633469,-0.1151015,supermarket,4,2
ChIJL_tPQYsPdkgRb-b35V60daQ,Muay Supermarket,"8a Hogarth Rd, London SW5 0PT, United Kingdom",51.4927673,-0.1926982,supermarket,4.2,0
ChIJq4q9KGEFdkgR5p1kSdVkMdA,Londis,"156 Old Brompton Rd, South Kensington, London SW5 0BE, United Kingdom",51.4908679,-0.182932,supermarket,3.9,2
ChIJ-3eb36QEdkgRxPoebFo-uMQ,Sainsbury's Local,"157, 168 Blackfriars Rd, London SE1 8EZ, United Kingdom",51.5015701,-0.1042883,supermarket,2.9,2
ChIJv_A-rL4EdkgR4dwEVVbDeQU,Sainsbury's Local,"107 Westminster Bridge Rd, London SE1 7HR, United Kingdom",51.4991072,-0.1131377,supermarket,3.9,2
ChIJ_cimqIwFdkgRe41oagwsiF0,the One Stop,"10 Coburg Cres, London SW2 3HS, United Kingdom",51.44256009999999,-0.1177848,supermarket,1,0
ChIJCwh8Zs8FdkgREc0M2sIR3aw,Waitrose & Partners Balham,"134-152 Balham High Rd, London SW12 8AY, United Kingdom",51.4456351,-0.1516179,supermarket,4.2,2
ChIJFdvaXGMcdkgR1NfL6iPQrQA,UK Supermarket London,"159 Stoke Newington Church St, London N16 0UH, United Kingdom",51.5614729,-0.08177899999999999,supermarket,4.4,0
ChIJs17QjhgFdkgR54N7E69mmPA,Sainsbury's Local,"14 - 20 Elizabeth St, London SW1W 9RB, United Kingdom",51.493128,-0.1493497,supermarket,3.5,2
ChIJaQiiY1cDdkgRE_F6DyPugG0,Londis,"53 Borough High St, London SE1 1NE, United Kingdom",51.5046828,-0.0898033,supermarket,2.9,2
ChIJPT0JWp0EdkgR3BH-o7JiOJo,Lý Trang Supermarket London,"10 Camberwell Rd, London SE5 0EN, United Kingdom",51.4841943,-0.09421589999999999,supermarket,3.8,0
ChIJ8faC1KMDdkgRzVm1rWTKt80,Asda Peckham Supermarket,"Rye Ln, London SE15 4NB, United Kingdom",51.4675437,-0.0673416,supermarket,3.2,1
ChIJhxvyABwGdkgRyTkkUK3A8Z0,Sainsbury's,"1 Merton High St, London SW19 1DD, United Kingdom",51.4151674,-0.1816695,supermarket,4.3,2
ChIJkUBJzWUCdkgRxAip1s0SVtw,Asda Lewisham Supermarket,"Unit 1 and 2 Thurston Point, Thurston Rd SE13 7SD, United Kingdom",51.46508799999999,-0.0166273,supermarket,3.7,1
ChIJi-od__QCdkgR3Oq9ato5jRM,Asda Deptford Supermarket,"5-9 Deptford High St, London SE8 4AD, United Kingdom",51.4752521,-0.0262291,supermarket,3.8,1
ChIJBz4-cCgEdkgRAAPZfC5DF9w,Sainsbury's,"15-17 Tottenham Court Rd, London W1T 1BJ, United Kingdom",51.5172406,-0.1313206,supermarket,4.1,2
ChIJ--Qp3lIFdkgRZHL1QN9YPOA,Europafoodxb ( Le Supermarche),"35 Craven Rd, London W2 3BX, United Kingdom",51.5135851,-0.1789112,supermarket,4.7,0
ChIJo6D62uuo2EcRv91tbRuEcBc,Tesco Extra,"Grand Depot Rd, London SE18 6HQ, United Kingdom",51.4892212,0.06626019999999999,supermarket,3.8,1
ChIJPdoPscQPdkgR7U1YPx6czs8,Lidl,"Shepherd's Bush Grn, London W12 8PP, United Kingdom",51.5031899,-0.218644,supermarket,4.2,0
ChIJMXHkHc4cdkgRZud-8UWz_ro,Sainsbury's,"1 Cambridge Heath Rd, London E1 5SD, United Kingdom",51.5211537,-0.0586368,supermarket,4.2,2
ChIJSaU37scGdkgR6A0p8UprXeA,Costcutter,"42 Green Ln, London, Thornton Heath CR7 8BB, United Kingdom",51.4091627,-0.1062171,supermarket,4,1
ChIJ5UoJ93QBdkgR88GQYvlo1v0,Sainsbury's,"158-162 High St, London SE20 7QS, United Kingdom",51.41264880000001,-0.0515878,supermarket,4.1,2
ChIJpzaVU4AEdkgRRt_Pi0OQaX4,TFC Camberwell,"303 Camberwell New Rd, London SE5 0TF, United Kingdom",51.475128,-0.095334,supermarket,4.3,0
ChIJSbGqZp0EdkgRI3WTOA2HVO8,Tesco Express,"364-368 Walworth Rd, London SE17 2NF, United Kingdom",51.485115,-0.094071,supermarket,2.9,1
ChIJm9PHqd4FdkgREa8eEiQ6xic,Lidl,"279-291 Balham High Rd, Tooting Bec, London SW17 7BA, United Kingdom",51.4363786,-0.1583185,supermarket,4.1,0
ChIJtVbjQCcTdkgRirAq-4h6NyM,Asda South Harrow Supermarket,"469, 491 Northolt Rd, London HA2 8JN, United Kingdom",51.557689,-0.360897,supermarket,4,1
ChIJkWPYoZkPdkgRRvC2p13PagI,Tesco Express,"21 Sherbrooke Rd, London SW6 7HX, United Kingdom",51.4809084,-0.2067797,supermarket,2.9,1
ChIJ4_DLAigEdkgRTGKzhztpFNI,Lidl,"222-224 Streatham High Rd, London SW16 1BB, United Kingdom",51.4311917,-0.1297136,supermarket,4.2,0
ChIJUcj3dKADdkgRIS7nC5BfcAk,Morrisons,"Aylesham Centre, Rye Ln, London SE15 5EW, United Kingdom",51.47243899999999,-0.06705799999999999,supermarket,3.9,2
ChIJjVjzwJ0EdkgRXkkfIqba9Uw,Morrisons,"264 Walworth Rd, London SE17 2DL, United Kingdom",51.487528,-0.09663999999999999,supermarket,4,2
ChIJa35TMroEdkgRLLrf1In-oDI,Tesco Express,"100 Baylis Rd, London SE1 7AA, United Kingdom",51.499726,-0.1119393,supermarket,3.4,1
ChIJ92efOLoEdkgRso9k_0pbeKg,Sainsbury's Local,"101 Waterloo Rd, London SE1 8UL, United Kingdom",51.5030802,-0.1104897,supermarket,3.5,2
ChIJ607-SK8EdkgRMnzBfa4VEcs,M&S Simply Food,"Unit 21, 90 Southwark St, London SE1 0HX, United Kingdom",51.5055571,-0.0980443,supermarket,4.2,2
ChIJYX4m88cFdkgRPGgHz3m59PM,Sainsbury's Local,"39 Nightingale Ln, London SW12 8SY, United Kingdom",51.4517183,-0.1527698,supermarket,4.1,2
ChIJXcF4xhUDdkgRPpOnBbRVWSA,Tesco Express,"186-188 Southwark Park Rd., London SE16 3RP, United Kingdom",51.4921107,-0.0655787,supermarket,3.4,1
ChIJhfpMyEQDdkgRecEc_di8L7A,Londis,"107 Bermondsey St, London SE1 3XB, United Kingdom",51.50057810000001,-0.0816233,supermarket,4.8,2
ChIJlToLbj4GdkgRKP-SP35-eAM,Asda Mitcham Supermarket,"St James Estate, Bond Rd, Mitcham CR4 3EB, United Kingdom",51.407475,-0.168736,supermarket,3.9,1
ChIJx5FRihYHdkgR6vsT4uW5bzA,Lidl,"23 Streatham Rd, Mitcham CR4 2AD, United Kingdom",51.4118025,-0.1587829,supermarket,4.4,0
ChIJLZ5NFT8GdkgRqp0ScgsqGZc,Lidl,"9-17 Western Rd, Mitcham CR4 3ED, United Kingdom",51.4059434,-0.1670991,supermarket,4.1,0
ChIJWQMo0xEHdkgRHsnku0fM_M0,Asda Wallington Superstore,"Marlowe Way, Croydon CR0 4XS, United Kingdom",51.3768482,-0.1301372,supermarket,4,1
ChIJqTs9F20GdkgRI_1fT14A1VI,Tesco Express,"50-56 London Rd, London SW17 9HP, United Kingdom",51.4186461,-0.162246,supermarket,3.9,1
ChIJ9Y6zAE0bdkgROW-WkoRUS50,Sainsbury's Local,"60 Fetter Ln, London EC4A 1AA, United Kingdom",51.5175872,-0.1088159,supermarket,3.9,2
ChIJwf5H3AsGdkgRwv_ldUpv4x4,Tooting Supermarket London,"66 Tooting High St, London SW17 0RN, United Kingdom",51.4275004,-0.1687542,supermarket,3.3,0
ChIJodoLjbAHdkgRlm3iFMKzA2A,Sainsbury's Local,"168 London Rd, London SM6 7AN, United Kingdom",51.379351,-0.1557519,supermarket,3.9,2
ChIJHd6lQz4GdkgRWb-gjV0xyZs,Hoo Hing,"Bond Rd, Mitcham CR4 3EB, United Kingdom",51.40806000000001,-0.168035,supermarket,4,0
ChIJq6KV7DMHdkgRqYGFhmNv09Q,Waitrose & Partners Croydon,"Norfolk House, Wellesley Rd, Croydon CR0 1LG, United Kingdom",51.3744504,-0.0960163,supermarket,4.3,2
ChIJuWcuSasEdkgRvXXU7Ay9t0I,Sainsbury's Local,"10 Paternoster Sq., London EC4M 7DX, United Kingdom",51.51477939999999,-0.0991664,supermarket,3.7,2
ChIJI1DX7ecEdkgRaTxsR9DQWFg,Westminster Grocery & Vincent St Local Post Office is Opening on 21st December 2021 at 9.00am,"12 Vincent St, London SW1P 4HB, United Kingdom",51.49308,-0.129825,supermarket,4.6,0
ChIJA69MwiAFdkgR78FxYA2fa-Y,Waitrose & Partners Victoria Bressenden Place,"Bressenden Pl, London SW1E 5DH, United Kingdom",51.49798879999999,-0.1425596,supermarket,4.3,2
ChIJx1OTbAIFdkgRn-0LvxICpQ4,Tesco Express,"1 St Georges Street SW17 0PZ, United Kingdom",51.43582,-0.17718,supermarket,5,0
ChIJlUoaYFAbdkgRrMdBFjNmcGg,Waitrose & Partners Clerkenwell,"174 St John St, London EC1V 4DE, United Kingdom",51.5241197,-0.1027702,supermarket,4.3,2
ChIJJ5KXAWUddkgR9U8mcyseD8Y,Waitrose & Partners Stratford London,"Ground Floor, The Arcade 1 Lower, London E20 1EH, United Kingdom",51.5435244,-0.009548,supermarket,4.2,2
ChIJl_LUE8YcdkgRLn3Hc0YYlmU,Tesco Express,"271, 275 Bethnal Green Rd, London E2 6AH, United Kingdom",51.5264755,-0.06583309999999999,supermarket,3.8,1
ChIJhwdQCsUcdkgR_n1MEuOyxAw,Tesco Express,"361 Bethnal Green Rd, Bethnal Green, London E2 0AN, United Kingdom",51.5270328,-0.06116829999999999,supermarket,3.5,1
ChIJQz2u9docdkgRZW51q_nZvC0,Sainsbury's Local,"291 Cambridge Heath Rd, London E2 0EL, United Kingdom",51.5270462,-0.0558618,supermarket,2.8,2
ChIJeQhEcNscdkgRgo8L5aUSrv4,City Supermarket London,"389 Cambridge Heath Rd, London E2 9RA, United Kingdom",51.5303743,-0.05646590000000001,supermarket,4.8,0
ChIJtckH67scdkgRti7M07TO45Q,Longdan Hoxton,"57 Kingsland Rd, London E2 8AG, United Kingdom",51.5295761,-0.07771,supermarket,4.4,0
ChIJd4dXOFQFdkgR0_2nbk8TY7o,Little Waitrose & Partners Kensington Gardens,"104-105 Bayswater Rd, London W2 3HJ, United Kingdom",51.5108056,-0.1841062,supermarket,3.8,2
ChIJYWWFV4kPdkgR4PmG4aXIzVo,Tesco Express,"294 Old Brompton Rd, London SW5 9JF, United Kingdom",51.4885736,-0.1931231,supermarket,3.4,1
ChIJtRZytKoFdkgRUz4K6b_RXiM,Sainsbury's Local,"Unit 5 and 6, 57-63 Charing Cross Rd, London WC2H 0NE, United Kingdom",51.51216540000001,-0.1287084,supermarket,3.5,0
ChIJYUSM5SEFdkgRjJhnCnp8yMw,Sainsbury's Local,"115 Buckingham Palace Rd, London SW1W 9SJ, United Kingdom",51.49410779999999,-0.1459112,supermarket,3.5,2
ChIJv6YoJ68cdkgRUaxRPKPeE1Y,Tesco Express,"1-23 City Rd, London EC1Y 1AG, United Kingdom",51.52281809999999,-0.08699210000000002,supermarket,4,1
ChIJt2cU794EdkgRis7ZmzJpyCA,Little Waitrose & Partners Victoria Street,"62 Victoria St, London SW1E 6QP, United Kingdom",51.49744279999999,-0.1371766,supermarket,3.9,2
ChIJW2Q0-TQbdkgRyq85bQ4ZJSQ,Sainsbury's,"129-133 Kingsway, London WC2B 6NH, United Kingdom",51.5173572,-0.1205495,supermarket,4.1,2
ChIJZacwIN0EdkgRp72EypSp67Y,Tesco Express,"2 Monck St, London SW1P 2BW, United Kingdom",51.496462,-0.1305697,supermarket,4.1,1
ChIJK-4t4oQPdkgRblQXbWnHX7Q,M&S Simply Food,"289-291 Fulham Rd., London SW10 9PZ, United Kingdom",51.4872182,-0.1786305,supermarket,4,2
ChIJM_wA5acEdkgRImYPg3i607I,Londis,"77-79 Union St, London SE1 1SG, United Kingdom",51.5038657,-0.0953141,supermarket,4.3,2
ChIJ29Y8_GYEdkgRT7nEkSii63A,Crackerjack Gold,"394 Brixton Rd, London SW9 7AW, United Kingdom",51.4653879,-0.114079,supermarket,4.8,0
ChIJq3hpaocQdkgREE09cxKeeEk,Waitrose & Partners John Barnes,"199 Finchley Rd, South Hampstead, London NW3 6NN, United Kingdom",51.546203,-0.1795884,supermarket,4.3,2
ChIJT-5xkEsbdkgRlr6YSM72SP8,M&S Simply Food,"Heron House, 323-324 High Holborn, Springfield Way, London WC1V 7PD, United Kingdom",51.5181011,-0.1123209,supermarket,4.1,2
ChIJ25h8odkPdkgRkVn7SnzQ17Y,Waitrose & Partners Westfield London,"Shopping Centre, Ariel Way, London W12 7GA, United Kingdom",51.5064317,-0.2192323,supermarket,4.4,2
ChIJFXGCLasEdkgRF1JBpRJ1u-Y,M&S Simply Food,"Juxon House, Paternoster Lane Retail Unit 1, 1 Merlin Rd, London EC4M 7DX, United Kingdom",51.513948,-0.1004993,supermarket,4.2,2
ChIJQWZT52APdkgR3EQZyTHDE7Y,Sainsbury's,"45 Garratt Ln, London SW18 4AD, United Kingdom",51.4544244,-0.1916741,supermarket,4.3,2
ChIJa_bclL4edkgRNdAQzFzNtJs,Oz International Supermarket,"115-117 Silver St., London N18 1RG, United Kingdom",51.61614119999999,-0.0750364,supermarket,4.1,0
ChIJreWR458DdkgRUCASHs3tX8U,Lidl,"3 Bellenden Rd, London SE15 5BA, United Kingdom",51.4725189,-0.07128849999999999,supermarket,4.2,0
ChIJsf9E6qMDdkgRhoBHvrOoctg,Tesco Express,"265 Rye Ln, London SE15 4UR, United Kingdom",51.4664296,-0.0656712,supermarket,2.6,1
ChIJ_wbUoA8DdkgRSCbQ-UKGnlo,Lidl,"2 Massinger St, London SE17 1TY, United Kingdom",51.4916291,-0.08326789999999999,supermarket,4.2,0
ChIJi_mUD9IadkgR6dZKsVu62F8,Waitrose & Partners Marylebone,"98/101 Marylebone High St, London W1U 4SD, United Kingdom",51.51944580000001,-0.1518961,supermarket,4.3,2
ChIJJVHlMlIDdkgRWLgmapTxxdo,Tesco Express,"6 Eastcheap, London EC3M 1AE, United Kingdom",51.5105131,-0.0847701,supermarket,3.6,1
ChIJkWL7hhIPdkgR2MZ4e65xKck,Sainsbury's,"2-6 Werter Rd, London SW15 2LJ, United Kingdom",51.4621659,-0.2155339,supermarket,4.1,2
ChIJcwDuslECdkgRC8xPvkp33ho,Costcutter Mantle Road,"4 Mantle Rd, London SE4 2EX, United Kingdom",51.4647602,-0.0380573,supermarket,3.7,1
ChIJ8XHTE8scdkgRWItn3tvvzEs,Tesco Express,"4 Fieldgate St, London E1 1ES, United Kingdom",51.51686249999999,-0.0663446,supermarket,3,1
ChIJVeH5rYwPdkgRPTnavJaVkvs,Dina Supermarket London,"127 Earls Ct Rd, London SW5 9RH, United Kingdom",51.4935361,-0.194553,supermarket,2.6,0
ChIJO69PV4QPdkgRmd6dp40RDR0,Whole Foods Market,"2-6 Fulham Broadway, London SW6 1AA, United Kingdom",51.4800474,-0.1963508,supermarket,4.4,3
ChIJ74DN5esEdkgRorECV_guXL4,Londis Albert Embankment,"38-46 Albert Embankment, London SE1 7TJ, United Kingdom",51.4889222,-0.1227985,supermarket,2.7,2
ChIJBdWCAj4bdkgRkoKWabKiJUU,Waitrose & Partners Kings Cross,"1 Wharf Road, London N1C 4BZ, United Kingdom",51.536176,-0.123422,supermarket,4.4,2
ChIJXybcqeYEdkgRalHgsEg13JY,Greatway Grocery Store,"7 Lupus St, Pimlico, London SW1V 3AS, United Kingdom",51.48871219999999,-0.1345833,supermarket,2.8,0
ChIJ46HLyosPdkgR-sQ0YI1PioU,Krystals London,"320-322 Earls Ct Rd, London SW5 9BQ, United Kingdom",51.48975679999999,-0.1905525,supermarket,3.5,0
ChIJNfiIPF0DdkgRcpKsmOKJovI,Costcutter,"65 Tower Bridge Rd, London SE1 4TL, United Kingdom",51.4958323,-0.0833489,supermarket,3,1
ChIJlxSP75MGdkgRbZ6dStnP578,Lidl Norbury,"1 Hermitage Ln, Norbury, London SW16 3LH, United Kingdom",51.41434839999999,-0.123873,supermarket,4.2,0
ChIJAThulYoGdkgRxjFKxhU5ZXc,Lidl,"216 Rowan Rd, London SW16 5HX, United Kingdom",51.4112891,-0.1392482,supermarket,4.2,0
ChIJvztvTtEEdkgRIpdEF-4tMDg,Tesco Express,"17-25 Regent St., St. James's, London SW1Y 4LR, United Kingdom",51.5089325,-0.1345999,supermarket,3.8,1
ChIJDfOerBQFdkgRD4WSQjSP6bM,Marks and Spencer,"85 King's Rd, London SW3 4NX, United Kingdom",51.4888831,-0.1647127,supermarket,4.2,2
ChIJ1a9SAiwbdkgREroHUxGllnI,Tesco Express,"10-16 Goodge St, London W1T 2QB, United Kingdom",51.5200118,-0.1345119,supermarket,3.9,1
ChIJERYWeGUEdkgReVDWKpuya84,Pay Less Food & Wine London,"324 Coldharbour Ln, London SW9 8QH, United Kingdom",51.4631018,-0.108179,supermarket,3.8,0
ChIJV6gJUkgDdkgRw2Abt9UNe7E,Tesco Express,"St Katharine's Way, London E1W 1LE, United Kingdom",51.5071962,-0.07381109999999999,supermarket,4.1,1
ChIJhVj5c60EdkgRSvHouPv-848,Tesco Express,"16-18 New Bridge St, Blackfriars, London EC4V 6HX, United Kingdom",51.512662,-0.1044345,supermarket,3.5,1
ChIJ531-iYMDdkgR5NZyCWMLPmE,Cornners,"115 Grove Ln, London SE5 8BG, United Kingdom",51.4683381,-0.0864561,supermarket,4.3,0
ChIJYVA1454EdkgRON2NsaRRw1U,Longdan,"128-132 Walworth Rd, London SE17 1JL, United Kingdom",51.49141580000001,-0.0979255,supermarket,4.3,0
ChIJb1kweScDdkgREkRo9O3HG_E,Gather,"121 Bellenden Rd, London SE15 4QY, United Kingdom",51.467833,-0.0723296,supermarket,4.8,0
ChIJ6zGeCrUbdkgRnzERYIS3a8M,Lidl,"145 Tottenham Court Rd, London W1T 7NE, United Kingdom",51.52421409999999,-0.1372409,supermarket,4.5,0
ChIJuQbaA2ocdkgRNomvRE4YAf0,Asda Stamford Hill Supermarket,"158 Clapton Common, London E5 9AG, United Kingdom",51.573058,-0.0709566,supermarket,3.3,1
ChIJx1oMRJYFdkgRQhnJy4-VC84,Food Base London,"35 Electric Ave, London SW9 8JP, United Kingdom",51.4622451,-0.1132725,supermarket,1,0
ChIJyaCBMrcEdkgRt_n1Kh9kpn8,Costcutter,"62 Cornwall Rd, London SE1 9PU, United Kingdom",51.50664829999999,-0.1118297,supermarket,3.3,1
ChIJI8GjiGUGdkgR2le1iShXUVM,Tesco Express,"189-191 Streatham Rd, Mitcham CR4 2AJ, United Kingdom",51.416492,-0.152434,supermarket,3.4,1
ChIJ8d-VBEEGdkgRoQnfbIvdMxA,Morrisons,"St Mark's Rd, Mitcham CR4 2JS, United Kingdom",51.40731,-0.162422,supermarket,4.1,2
ChIJW-tLL0AGdkgRyVgPlFZxn6Y,Food World,"117-119 London Rd, Mitcham CR4 2JA, United Kingdom",51.40950789999999,-0.1616095,supermarket,3.8,0
ChIJE1W3q3MGdkgR9_N7Ky35epw,Sainsbury's Local,"196 Mitcham Rd, London SW17 9NN, United Kingdom",51.4231509,-0.1610774,supermarket,4.1,2
ChIJt-dMgUAGdkgRqDEVPwcRvx8,Owino Mini Market,"195 London Rd, Mitcham CR4 2JD, United Kingdom",51.4074143,-0.1633123,supermarket,4.6,0
ChIJ26wg2wsGdkgRd4InjEMRYgE,Sainsbury's,"71-77 Tooting High St, London SW17 0RN, United Kingdom",51.427096,-0.1681602,supermarket,4.1,2
ChIJr7wHWz8GdkgRNPI9surbx9k,Emmanuel's Groceries,"13 Fairgreen Parade, Mitcham CR4 3NA, United Kingdom",51.4053256,-0.1645123,supermarket,4.4,0
ChIJ85OTkjkGdkgR-OYsSvE5J1M,Pawelek European Food,"323, 323A London Rd, Mitcham CR4 4BE, United Kingdom",51.40049279999999,-0.1689796,supermarket,4.5,0
ChIJScf8pikFdkgRWvn0VFJehQc,Sainsbury's Local,"38 Stratton St, London W1J 8LT, United Kingdom",51.5080924,-0.1434166,supermarket,3.9,2
ChIJdSS1ecUFdkgRWF_EdYf1eyo,Planet Organic - Balham,"186-188 Balham High Rd, London SW12 9BP, United Kingdom",51.443984,-0.1527627,supermarket,4.1,0
ChIJszqFIQMEdkgRMbFH1qxaY68,Sainsbury's Local,"364-366 Norwood Rd, Norwood, London SE27 9AA, United Kingdom",51.4340717,-0.1040849,supermarket,3.4,2
ChIJcVvj6B0FdkgRnr-3HCgwH0k,Friends Supermarket,"82 Lupus St, Pimlico, London SW1V 3EL, United Kingdom",51.48778009999999,-0.1421163,supermarket,3.6,0
ChIJoZP8coIEdkgRJ0xASsp6FPk,Seehra Super Market,"London SE5 0EE, United Kingdom",51.47962829999999,-0.0943813,supermarket,1,0
ChIJVVmw_OEDdkgRLamkRhvGtyg,Lane Supermarket,"395 Lordship Ln, London SE22 8JN, United Kingdom",51.4487636,-0.0737172,supermarket,5,0
ChIJ7991cesDdkgRSsaWsDD24NU,Sainsbury's Local,"357-361 Lordship Ln, London SE22 8JJ, United Kingdom",51.4500113,-0.0749715,supermarket,3.5,2
ChIJP9stp5EDdkgRO1KzETwTrkY,Ronnies Supermarket,"73 E Dulwich Grove, London SE22 8PR, United Kingdom",51.4587114,-0.0797828,supermarket,4.3,0
ChIJc0hxe8EDdkgRCilvbjpc3E4,AM Supermarket,"Bredinghurst, 137-138 Overhill Rd, London SE22 0PN, United Kingdom",51.4470518,-0.0666326,supermarket,4.4,0
ChIJlR7sEVADdkgRCGU5Sh9Gqck,M&S Simply Food,"More London Riverside Unit C The More London Bridge, CliffoRoad, Bridge Road, London SE1 2DA, United Kingdom",51.5051166,-0.083103,supermarket,4.2,2
ChIJJwGKyKAFdkgR90VwKPnpAzo,Best Food & Wine Groceries,"52 Culvert Rd, London SW11 5AR, United Kingdom",51.4715245,-0.1589706,supermarket,4.3,0
ChIJt1I4N8UFdkgR-9F0J5qJtkc,Sainsbury's,"147-151 Balham High Rd, London SW12 9AU, United Kingdom",51.4437577,-0.1508739,supermarket,4.2,2
ChIJmTKQn9MFdkgRBnaU9kg5Y7E,ALDI,"163, 165 Balham High Rd, London SW12 9AU, United Kingdom",51.4435905,-0.152273,supermarket,4.5,0
ChIJ_USeLM4FdkgRUA85jxZ4yEE,Costcutter,"84 Bedford Hill, London SW12 9HR, United Kingdom",51.4419721,-0.1493185,supermarket,3.6,1
ChIJI9ed4doFdkgRscitvT1gNZg,Tesco Esso Express,"219 Balham High Rd, London SW17 7BQ, United Kingdom",51.4387779,-0.1559101,supermarket,4,0
ChIJsQGdsc0FdkgRLJkaI-heKMA,Amin B M,"273-275 Cavendish Rd, London SW12 0PH, United Kingdom",51.4433904,-0.1441697,supermarket,3.3,2
ChIJzbpGAekFdkgR7R6LXtpagiY,Sainsbury's Local,"27-29 Bellevue Rd, London SW17 7EF, United Kingdom",51.4442105,-0.1673132,supermarket,3.3,2
ChIJcWrdUNkFdkgR4yVLMRIqgsE,Sainsbury's Local,"43 Tooting Bec Rd, London SW17 8BS, United Kingdom",51.4353667,-0.1572412,supermarket,3.1,2
ChIJt4e7mt4FdkgRjrlE-9FvJC0,Arena Foods Market,"6-8 Upper Tooting Rd, Tooting Bec, London SW17 7PG, United Kingdom",51.4355388,-0.1602761,supermarket,4.4,0
ChIJS9Z2v6oEdkgRAnVt_dkVY80,M&S Simply Food,"3A New Change, London EC4M 9AF, United Kingdom",51.5135897,-0.0952967,supermarket,4.3,2
ChIJ6Uc23iwbdkgRH5yvKze7gKY,Londis (Open 24/7),"51 Oxford St, London W1D 2EF, United Kingdom",51.51618879999999,-0.1324141,supermarket,4,2
ChIJObnMwj4bdkgRqYr_8ExiX4I,Tesco Express,"21 Caledonian Rd, London N1 9DX, United Kingdom",51.5319746,-0.121146,supermarket,3.8,1
ChIJW1oBusoadkgRd2JvjQVedRw,Tesco Express,"90-100 Edgware Rd, London W2 2EA, United Kingdom",51.5156866,-0.1633304,supermarket,3.6,1
ChIJvz2_LYsadkgR0MmYN6vL8pE,M&S Simply Food,"Pond Street Hampstead, Excise Walk 3B-4A, London NW3 2PS, United Kingdom",51.5539226,-0.1651055,supermarket,4.2,2
ChIJewGGIiwbdkgRIsprpvRB5z4,M&S Simply Food,"55 Tottenham Court Rd, London W1T 2EQ, United Kingdom",51.5196917,-0.1336138,supermarket,4.2,2
ChIJf18RUzYDdkgRuJ4xtTfGAE8,Waitrose & Partners St Katharine Docks,"41 Thomas More St, London E1W 1YY, United Kingdom",51.506832,-0.06724179999999999,supermarket,4.1,2
ChIJq1EgefUQdkgR9wW6MoZ_1ak,Royal Market,"9 Cricklewood Ln, London NW2 1ET, United Kingdom",51.5572713,-0.2147902,supermarket,4.7,0
ChIJpzm3HB4bdkgR5BytQRbMiCc,Sainsbury's,"17-21 Camden Rd, London NW1 9LJ, United Kingdom",51.5404625,-0.1408706,supermarket,4.1,2
ChIJF87tCrUadkgR4FN5LwLXMWA,Waitrose & Partners Edgware,"168-176 Edgware Rd, London W2 2DX, United Kingdom",51.5175531,-0.1657688,supermarket,4.1,2
ChIJaRKenFYbdkgR1cR_ExbizWE,Tesco Express,"131 Aldersgate St, Barbican, London EC1A 4JQ, United Kingdom",51.5205905,-0.0977484,supermarket,3,1
ChIJydR2v9IEdkgRbne20Lxe-Rw,Londis,"21 Greek St, London W1D 4DX, United Kingdom",51.5138014,-0.1305917,supermarket,2.3,2
ChIJ8RCWvM4EdkgR2SnPrJHdKlM,Sainsbury's Local,"36-37 Strand, London WC2N 5HY, United Kingdom",51.5089234,-0.1243403,supermarket,3.7,2
ChIJu8hk1IAFdkgRWbfwytcrWis,Sainsbury's,"27 Townmead Rd, London SW6 2GD, United Kingdom",51.4674469,-0.187096,supermarket,4.3,2
ChIJk19qScQEdkgRAfu8leraCdg,Tesco Express,"Portcullis House, Bridge St, London SW1A 2JR, United Kingdom",51.5010586,-0.1249856,supermarket,3.2,1
ChIJYY4yH7sPdkgRHjXnSWDNfo8,Sainsbury's,"Retail Centre, Fulham Broadway, London SW6 1BW, United Kingdom",51.4805516,-0.1949584,supermarket,3.8,2
