place_id,name,formatted_address,lat,lng,types,rating,price_level
ChIJyYH9U2oFdkgRCr9oJuLmHiA,Elystan Street,"43 Elystan St, London SW3 3NT, United Kingdom",51.4915801,-0.1677161,restaurant,4.7,4
ChIJ5YAiW2UFdkgRxAuqGLK1fTo,Beaufort House Chelsea,"354 King's Rd, London SW3 5UZ, United Kingdom",51.484533,-0.176005,restaurant,4.3,3
ChIJuW4AjG8FdkgRDb_vqbTS508,Bluebird Chelsea,"350 King's Rd, London SW3 5UU, United Kingdom",51.48499109999999,-0.1754714,restaurant,4.2,3
ChIJJ-MhPWwFdkgRKVwtA039nU0,The Ivy Chelsea Garden,"195, 197 King's Rd, London SW3 5EQ, United Kingdom",51.48702489999999,-0.1693736,restaurant,4.3,3
ChIJt2h3ekAFdkgR0UYMcL1gIVA,Scalini,"1-3 Walton St, London SW3 2JD, United Kingdom",51.49594,-0.164814,restaurant,4.5,4
ChIJ51SweWoFdkgRIzOGa8Fhc9I,Daphne's,"112 Draycott Ave, London SW3 3AE, United Kingdom",51.4936729,-0.167754,restaurant,4.5,3
ChIJfVxx5EAFdkgRlX6XJZIwiwM,Hawksmoor Knightsbridge,"3 Yeoman's Row, London SW3 2AL, United Kingdom",51.4974318,-0.166794,restaurant,4.6,3
ChIJzT4I4RYFdkgR61NXXwjxo0M,Sloane Place Restaurant & Bar,"62, 64 Lower Sloane St, London SW1W 8BP, United Kingdom",51.490222,-0.1572113,restaurant,4.5,0
ChIJZfjW_xIFdkgRGBdYNnbZObI,Gordon Ramsay Bar & Grill - Chelsea,"79 Royal Hospital Rd, London SW3 4AN, United Kingdom",51.4859437,-0.1614945,restaurant,4.1,3
ChIJ2z13nUAFdkgR5JZACc4cVmc,Maroush Beauchamp Place,"38 Beauchamp Pl, London SW3 1NU, United Kingdom",51.4973409,-0.1644778,restaurant,4.2,2
ChIJ7dsWCHIFdkgR0l78z0NcBrs,No. Fifty Cheyne,"50 Cheyne Walk, London SW3 5LR, United Kingdom",51.4833537,-0.1694099,restaurant,4.6,4
ChIJZ43i-hIFdkgRm51mwhTNttI,Restaurant Gordon Ramsay,"68 Royal Hospital Rd, London SW3 4HP, United Kingdom",51.48549269999999,-0.1620059,restaurant,4.5,4
ChIJp0APU2sFdkgR1TksQm-kc_0,Benihana Chelsea,"Atlantic Court, 77 King's Rd, London SW3 4NX, United Kingdom",51.4890026,-0.1644015,restaurant,4.3,3
ChIJVYOxom8FdkgR8FESIrKHrdo,Big Easy Kings Road,"332-334 King's Rd, London SW3 5UR, United Kingdom",51.485335,-0.174327,restaurant,4.1,2
ChIJl6n_TWMFdkgR8fco0QXqCk4,Sticks'n'Sushi Chelsea,"113-115, King's Rd, London SW3 4NT, United Kingdom",51.48859359999999,-0.1656091,restaurant,4.5,3
ChIJwx_Hci0FdkgRgxwdoexS6ec,La Mia Mamma King's Road,"257 King's Rd, London SW3 5EL, United Kingdom",51.4860232,-0.1720926,restaurant,4.5,0
ChIJQ2JJU2UFdkgRLqs3zenUc9k,Chicama,"383 King's Rd, London SW10 0LP, United Kingdom",51.483366,-0.1765146,restaurant,4.3,3
ChIJi3VBxWEFdkgRufUDnWWtqBA,Albert's at Beaufort House,"354 King's Rd, London SW3 5UZ, United Kingdom",51.4845416,-0.1759967,restaurant,3.4,0
ChIJZbLhH2kFdkgRm_EJb70kJBw,Le Colombier,"145 Dovehouse St, London SW3 6LB, United Kingdom",51.4900186,-0.1731494,restaurant,4.4,3
ChIJPV-ol0AFdkgRa9Ihuooyapw,Ciro's Pizza Pomodoro -Italian Restaurant & Bar,"51 Beauchamp Pl, London SW3 1NY, United Kingdom",51.4976669,-0.1652117,restaurant,4.1,2
ChIJ__9Lhz8FdkgRdyenFjfQu5c,Dinings SW3,"Lennox Gardens Mews, London SW3 2JH, United Kingdom",51.4960653,-0.1642147,restaurant,4.3,3
ChIJPRbI7W4FdkgR6gcv6Mn7s3c,bye bye london restaurant مطعم باي باي لندن,"161 King's Rd, London SW3 5TX, United Kingdom",51.48772659999999,-0.1675517,restaurant,4,0
ChIJUaCq6-sFdkgRXlZ0lMw_vMs,"Vardo | Outdoor Dining, Takeaway & Coffee","9 Duke Of York Square, London SW3 4LY, United Kingdom",51.491443,-0.1593924,restaurant,4.3,0
ChIJ53rpr28FdkgRzn7PkYvU6Go,The Jam,"289A King's Rd, London SW3 5EW, United Kingdom",51.48528390000001,-0.1738437,restaurant,4.6,2
ChIJIWPm_2oFdkgRAn1OerI2pIU,Villa Mamas London,"25 Elystan St, London SW3 3NT, United Kingdom",51.4912705,-0.1672297,restaurant,4.1,2
ChIJ53D3yEAFdkgRVnlGzBtMI-k,The Mantl,"142 Brompton Rd, London SW3 1HY, United Kingdom",51.4985862,-0.1660723,restaurant,4.2,0
ChIJXcPZYWsFdkgRsWEe71cturU,Rabbit,"172 King's Rd, London SW3 4UP, United Kingdom",51.488725,-0.1661028,restaurant,4.3,3
ChIJsV9zmUAFdkgR03ZIvLkdUAo,Borshtch n Tears - Борщ И Слёзы,"46 Beauchamp Pl, London SW3 1NX, United Kingdom",51.4975597,-0.1649211,restaurant,3.9,2
ChIJSe29W2QFdkgRqu5f7VwN-S0,VQ Chelsea,"325 Fulham Rd., London SW10 9QL, United Kingdom",51.4863496,-0.1800105,restaurant,4.1,2
ChIJ_UXBBssFdkgRUdKF-u4Hb0w,Kutir,"10 Lincoln St, London SW3 2TS, United Kingdom",51.4916117,-0.1614614,restaurant,4.7,0
ChIJ7_ja5EAFdkgRp0iKcuOo2Cc,Giovanni Restaurant,"6-8 Yeoman's Row, London SW3 2AH, United Kingdom",51.4971667,-0.1668333,restaurant,4.4,2
ChIJw4tcskAFdkgR9X4PUFaL0uA,Al Arez 2,"128 Brompton Rd, London SW3 1JD, United Kingdom",51.4989389,-0.1652833,restaurant,4.1,0
ChIJfb0k1EEFdkgRUAPI7n5SWmc,Zefi,"103 Walton St, London SW3 2HP, United Kingdom",51.4940386,-0.1676368,restaurant,4.2,2
ChIJ2RoPX2oFdkgRvpEaWDggibo,Gaucho Sloane Avenue,"89 Sloane Ave, London SW3 3DX, United Kingdom",51.49284300000001,-0.167465,restaurant,4.3,3
ChIJF0MJqRUFdkgRWsMF6FTENfE,The Five Fields,"8-9 Blacklands Terrace, London SW3 2SP, United Kingdom",51.4916908,-0.1613259,restaurant,4.7,4
ChIJ9f-QkHMFdkgRiLgSMxXqAfk,"Nutbourne Bar and Restaurant, Battersea","35-37 Parkgate Rd, London SW11 4NP, United Kingdom",51.4793494,-0.1679767,restaurant,4.3,2
ChIJk2Ru4EEFdkgR3xGR_uexa3c,Restaurant Ours,"264 Brompton Rd, South Kensington, London SW3 2AS, United Kingdom",51.49402019999999,-0.1690969,restaurant,3.9,4
ChIJTcL1R8QFdkgRp69axWoMh7c,Nar Pide,"2, Leigham Hall Parade, Streatham High Rd, London SW16 1DR, United Kingdom",51.4359691,-0.1277924,restaurant,5,0
ChIJeZk6f30HdkgRhgxu2D99Vf8,LO Paste Tradizionali,"12 Gleneagle Rd, London SW16 6AB, United Kingdom",51.42703789999999,-0.131898,restaurant,4.9,0
ChIJuRV6wkYFdkgRkABhV-gvZgU,SW16 Bar & Kitchen,"5 Streatham High Rd, London SW16 1EF, United Kingdom",51.4371033,-0.1271258,restaurant,4.7,0
ChIJIXByTeQHdkgRAW6VJdEQPIY,Galitos Piri Piri - Streatham,"422 Streatham High Rd, London SW16 3SN, United Kingdom",51.4219604,-0.1293405,restaurant,4.9,0
ChIJu9eu4CQEdkgRvSpU3XMNwTA,Bar 61 Restaurant,"61A Streatham Hill, London SW2 4TX, United Kingdom",51.44004959999999,-0.1255294,restaurant,4.6,2
ChIJKW6tUZ0GdkgRTRQQ9BJkXbE,Bravi Ragazzi,"2A Sunnyhill Rd, London SW16 2UH, United Kingdom",51.43063369999999,-0.1292189,restaurant,4.6,1
ChIJ603w6D8PdkgRQq2XFl5-pYM,Beirut Rock Restaurant,"Beirut Rock Restaurant, 1547 London Rd, Norbury, London SW16 4AD, United Kingdom",51.4122649,-0.124072,restaurant,4.9,0
ChIJWXeur6gHdkgRRjegpktVMec,Streatham Kitchen,"20 Mitcham Ln, London SW16 6NN, United Kingdom",51.4283425,-0.1324327,restaurant,4.9,0
ChIJBfP3roIGdkgRQVFPhIcug7I,Wholemeal Cafe,"1 Shrubbery Rd, London SW16 2AS, United Kingdom",51.4304176,-0.1293547,restaurant,4.7,2
ChIJl1A34SQEdkgRd_l4kl-23nA,Hood Streatham,"67 Streatham Hill, London SW2 4TX, United Kingdom",51.43985079999999,-0.1256016,restaurant,4.6,2
ChIJIRQ4-4IGdkgRSqgx6JHxoUE,Rice Republic Chinese Restaurant,"161 Streatham High Rd, London SW16 6EG, United Kingdom",51.4288306,-0.1307889,restaurant,4.6,2
ChIJpxMZl-kGdkgR4wYyrlAAK6c,Sorrento In,"1168 London Rd, Norbury, London SW16 4DP, United Kingdom",51.4035813,-0.1190476,restaurant,4.7,2
ChIJm2ec6yUEdkgRNNvg7ZGXmVI,Italian Bistro,"32 Streatham High Rd, London SW16 1DB, United Kingdom",51.4372786,-0.1276623,restaurant,4.6,1
ChIJmSLmM9oFdkgRGFlc58401Rg,Super Turkish Kebab,"21 Leigham Ct Rd, London SW16 2ND, United Kingdom",51.4377013,-0.1262799,restaurant,4.8,0
ChIJL8ViRFQFdkgRrllcMGiwhzA,Don Luigi Pizzeria Streatham,"17, 21 Sternhold Ave, London SW2 4PA, United Kingdom",51.4385211,-0.127799,restaurant,4.8,0
ChIJrULYMCQEdkgRysd3Hhuy5cU,Kennedy's Fish & Chips Streatham,"5 Leigham Ct Rd, London SW16 2ND, United Kingdom",51.4380499,-0.1265032,restaurant,4.4,2
ChIJMWAqdQUHdkgRzS06stUO6Yw,Dilpasand Express,"151 Streatham High Rd, London SW16 6EG, United Kingdom",51.42907049999999,-0.1308336,restaurant,4.7,0
ChIJW0yH6Q4FdkgRiwYI6e9qLbQ,Station Cafe,"Kinleigh Estate Agents, 7 Leigham Ct Rd, London SW16 2ND, United Kingdom",51.43797370000001,-0.1264886,restaurant,4.8,0
ChIJXfGIwtcFdkgRChsX9HCN1wg,Baby Spinach Cafe Streatham,"24 - 26, The High Parade, Streatham High Rd, London SW16 1EX, United Kingdom",51.4339317,-0.1278657,restaurant,4.4,0
ChIJqeerLyYEdkgRZGroA68m73g,La Casita,"122 Streatham High Rd, London SW16 1BW, United Kingdom",51.434016,-0.1284869,restaurant,4.3,2
ChIJf1sBI0EFdkgReUwOSSrjuTA,The Real Jerk UK,"89 Streatham Hill, London SW2 4UD, United Kingdom",51.4389855,-0.125977,restaurant,4,2
ChIJocH8lkAEdkgRYilAGNbpxUk,Negril,"132 Brixton Hill, London SW2 1RS, United Kingdom",51.452752,-0.12135,restaurant,4.2,2
ChIJM58NjUAEdkgRkr40K7lxQQ0,Katakata,"132A Brixton Hill, London SW2 1RS, United Kingdom",51.4527406,-0.1212259,restaurant,4.7,1
ChIJa5oc12cEdkgR6C3PRAuuoYQ,KaoSarn London,"Granville Arcade, Unit 96 Coldharbour Ln, London SW9 8PR, United Kingdom",51.462139,-0.111533,restaurant,3.7,1
ChIJfbBqsDoFdkgRL-yWExL9nU0,Maremma,"36 Brixton Water Ln, London SW2 1PE, United Kingdom",51.4550963,-0.1128265,restaurant,4.7,0
ChIJh8JjrEEEdkgRDQLe_Cp3OzE,Pizza Brixton,"105 Brixton Hill, London SW2 1AA, United Kingdom",51.454663,-0.119539,restaurant,4.6,1
ChIJUTZjYXwFdkgRQpYeP2_cg7Q,Blank,"144 Acre Ln, London SW2 5UT, United Kingdom",51.4597522,-0.1251257,restaurant,4.7,0
ChIJQfUp7kIEdkgRp84y_4o-FUQ,The Blues Kitchen,"40 Acre Ln, London SW2 5SP, United Kingdom",51.4606188,-0.1192552,restaurant,4.3,2
ChIJe7CRrUEEdkgRDX9V-HpwDXw,Fish Lounge,"99 Brixton Hill, London SW2 1AA, United Kingdom",51.4547434,-0.1194444,restaurant,4.7,1
ChIJqcZLzjsEdkgR2vBYkLZTYfU,McDonald's Streatham Place,"22 Streatham Pl, Brixton Hill, London SW2 4PZ, United Kingdom",51.4458766,-0.1251679,restaurant,3.2,1
ChIJd1AUy2kEdkgRnvKUPvhHZPw,Gremio de Brixton,"St Matthew's Church, Basement, Brixton Hill, London SW2 1JF, United Kingdom",51.4597985,-0.1161297,restaurant,4.1,2
ChIJiTBOBkUEdkgRQHbnR6tsvdc,Boqueria,"192 Acre Ln, London SW2 5UL, United Kingdom",51.4599404,-0.1271415,restaurant,4.4,2
ChIJwzZpo2sEdkgRKvYBNtOcYJ8,Khan's Of Brixton,"24 Brixton Water Ln, London SW2 1PE, United Kingdom",51.4551036,-0.1133401,restaurant,4.3,0
ChIJ3eGRXkQEdkgRdp706vxQ5vc,The Beast of Brixton,"89 Acre Ln, Brixton Hill, London SW2 5TN, United Kingdom",51.4594444,-0.1247222,restaurant,4.4,2
ChIJ___bMDsEdkgRCdkQI13bF44,Batch & Co Coffee,"54 Streatham Hill, London SW2 4RD, United Kingdom",51.4419049,-0.1249024,restaurant,4.5,2
ChIJNxSsvGsEdkgRf3_4y_4ajzc,Naughty Piglets,"28 Brixton Water Ln, London SW2 1PE, United Kingdom",51.4551136,-0.1131099,restaurant,4.7,2
ChIJwRVvmmgEdkgRNr5FlXN4m58,Salon,"18 Market Row, London SW9 8LD, United Kingdom",51.461823,-0.1132495,restaurant,4.5,2
ChIJq_jCq2gEdkgRs_DxcY1rzfc,El Rancho De Lalo,"New location: The press, 1, Buckner Rd, London SW2 5BY, United Kingdom",51.4603763,-0.117279,restaurant,4.7,1
ChIJK-vQWEQEdkgR6jW6Y_MO9Gc,Khamsa,"140 Acre Ln, London SW2 5UT, United Kingdom",51.45975139999999,-0.1249977,restaurant,4.8,0
ChIJF1NfM28EdkgRqClIABtAetQ,SW9 Restaurant,"62 Brixton Rd, London SW9 6BS, United Kingdom",51.4788827,-0.1120621,restaurant,4.3,2
ChIJS1f5qmgEdkgRuHWqMQ13CfA,OKAN,"Unit 39, Brixton Village, Coldharbour Ln, London SW9 8PS, United Kingdom",51.46256409999999,-0.1116715,restaurant,4.6,1
ChIJmxe8mWgEdkgR2k-pHbCVogI,Nanban,"426 Coldharbour Ln, London SW9 8LF, United Kingdom",51.4617008,-0.113961,restaurant,4,2
ChIJ4XvJ6ccFdkgRCT8xJ-qMFqk,The Laundry,"374 Coldharbour Ln, London SW9 8PL, United Kingdom",51.4622398,-0.1112546,restaurant,4.3,0
ChIJhyeu8YsEdkgRI2Z3q-G4vls,Cafe Van Gogh,"88 Brixton Rd, Vassal, London SW9 6BE, United Kingdom",51.47763560000001,-0.1126199,restaurant,4.7,1
ChIJf35ihmgEdkgRLShWNhUaNmY,MamaLan Brixton | Chinese Street Food & Bubble Tea,"Unit 18, Brixton Village, London SW9 8PR, United Kingdom",51.46253189999999,-0.1123953,restaurant,3.9,1
ChIJmQusS28EdkgRRo6ZJZDOIKk,Courtesan,"The Metropolis, 69-73 Atlantic Rd, London SW9 8PU, United Kingdom",51.4611925,-0.1111244,restaurant,4.2,2
ChIJ_SfYoLwFdkgRf5a6yItmOU0,Kricket Brixton,"41-43 Atlantic Rd, London SW9 8JL, United Kingdom",51.4623374,-0.1122813,restaurant,4.4,0
ChIJl_H3YWgEdkgRLmgJBWwykIA,SatayBar,"447 Coldharbour Ln, London SW9 8LP, United Kingdom",51.4613889,-0.1144444,restaurant,3.8,2
ChIJ5U5qeGUEdkgR0IzkMt4IPEc,OKAN Brixton East,"338 Coldharbour Ln, London SW9 8QH, United Kingdom",51.4628926,-0.1086063,restaurant,4.4,1
ChIJJfRNomgEdkgRyBeLhezr9Ak,Senzala Creperie,"41-42 Coldharbour Ln, London SW9 8PS, United Kingdom",51.4625114,-0.1116416,restaurant,4.6,0
ChIJj6yxy2cEdkgRLu-NA3s0Lyc,San Marino Brixton,"413 Brixton Rd, London SW9 7DG, United Kingdom",51.46355860000001,-0.1144803,restaurant,4.4,1
ChIJkcCBp2gEdkgRY6YChh8IE1U,Honest Burgers Brixton,"Unit 12, Brixton Village, London SW9 8PR, United Kingdom",51.4623299,-0.1121115,restaurant,4.5,2
ChIJs22lE2YEdkgREutIC6kNFa4,Franzina Trattoria,"395 Coldharbour Ln, London SW9 8LQ, United Kingdom",51.46165149999999,-0.1121997,restaurant,4.5,2
ChIJ-Veb-V0EdkgROXINI3SApjw,O Cantinho De Portugal,"137 Stockwell Rd, London SW9 9TN, United Kingdom",51.467171,-0.117527,restaurant,4.3,2
ChIJsQ6Ar2gEdkgRaSBip_KX0ck,Chip Shop,"378 Coldharbour Ln, London SW9 8LF, United Kingdom",51.46191349999999,-0.1119917,restaurant,4.4,2
ChIJLakP2n0HdkgRCe1m83MgGwE,Dirty Crunch,"23 Westow Hill, Norwood, London SE19 1TQ, United Kingdom",51.4199184,-0.0818782,restaurant,5,0
ChIJgWsagEUBdkgRGqCBjeUHe1M,Caracas cafe bar restaurant,"61 Westow St, London SE19 3RW, United Kingdom",51.4177695,-0.0818327,restaurant,0,0
ChIJnzEMR0UBdkgRMvtp01j2i1Q,Joanna's,"56 Westow Hill, London SE19 1RX, United Kingdom",51.41957069999999,-0.0805737,restaurant,4.4,2
ChIJPdl_908BdkgR5gwz5p6hST0,Edo,"18 Westow Hill, London SE19 1RX, United Kingdom",51.4197049,-0.0821133,restaurant,4.4,2
ChIJh4lPKWkHdkgRDHIkeReeefA,Stonebaked 417,"417 Beulah Hill, London SE19 3HB, United Kingdom",51.4223902,-0.106126,restaurant,4.9,0
ChIJs6U87FYBdkgRxBz2KGVcwiw,Manuel's Italian and Mediterranean Restaurant and Bar,"129 Gipsy Hill, Norwood, London SE19 1QS, United Kingdom",51.4276999,-0.0861774,restaurant,4.7,2
ChIJySuaqWEBdkgRPcD_PdGCU-4,Church Grill,"3-7 Church Rd, London SE19 2TF, United Kingdom",51.4196304,-0.0784322,restaurant,4.5,0
ChIJmVeDJVIBdkgRbDYneQ486SE,Oiwai,"7 Westow Hill, Norwood, London SE19 1TQ, United Kingdom",51.419922,-0.08278719999999999,restaurant,4.9,0
ChIJXc5QWkUBdkgRoBXMc4lFQms,Palace Spice,"36 Westow Hill, London SE19 1RX, United Kingdom",51.4196815,-0.08145519999999999,restaurant,4.5,0
ChIJb1Clw08BdkgR_DUAY1XXrlM,Dem Restaurant,"11 Central Hill, London SE19 1BG, United Kingdom",51.4195765,-0.0836102,restaurant,4.5,2
ChIJNdHjf08BdkgRaS2dOetmz6w,Mi Cocina Es Tuya,"61 Westow St, London SE19 3RW, United Kingdom",51.417776,-0.081838,restaurant,4.7,2
ChIJK_q5KEUBdkgRTFdOUE0kXQ4,Lorenzo of Crystal Palace,"73 Westow Hill, Norwood, London SE19 1TX, United Kingdom",51.4198563,-0.07931280000000002,restaurant,4.4,1
ChIJXc5QWkUBdkgRZ-uFPmCVA0I,Numidie Bar and Bistro,"48 Westow Hill, London SE19 1RX, United Kingdom",51.4196284,-0.0809937,restaurant,4.6,2
ChIJp76X1kQBdkgRS8t26NP7Ksk,Kishmish,"L.G.F, 13-14 Crystal Palace Parade, Norwood, London SE19 1UA, United Kingdom",51.4203863,-0.0786388,restaurant,4.3,2
ChIJ06MOEJwBdkgRDPFTAi-90IQ,River's Bar & Grill,"112, 114a Anerley Rd, London SE19 2AN, United Kingdom",51.4158445,-0.07232559999999999,restaurant,4.8,0
ChIJkz48fEUBdkgRQSrvN-97o84,Roti Brothers,"Victory Pl, London SE19 3RW, United Kingdom",51.4182476,-0.0820822,restaurant,4.6,0
ChIJKfrAkk8BdkgRE-i2NT2SJJM,Tofu East Asian Canteen,"5 Westow St, London SE19 3RY, United Kingdom",51.4191715,-0.0826761,restaurant,4.5,0
ChIJsRpIrY8HdkgRxMat3vvxZg0,La Cucina Di Daffy,"5, Crown Point Parade, Crown Dl, London SE19 3NG, United Kingdom",51.42242150000001,-0.1055654,restaurant,4.9,0
ChIJXc5QWkUBdkgR1UH_kth1ADY,Chi Oriental,"14 Westow Hill, London SE19 1RX, United Kingdom",51.4197307,-0.0823592,restaurant,3.9,2
ChIJm1iViEUBdkgRPz9m-KzQIn4,Urban Orient,"74 Westow St, London SE19 3AF, United Kingdom",51.4171055,-0.0817088,restaurant,4.4,2
ChIJXWUzo2gEdkgRNq6M9-SAKKc,Jalisco,"Unit 1, Brixton Village, Coldharbour Ln, London SW9 8PR, United Kingdom",51.4621703,-0.111432,restaurant,3.7,0
ChIJxbjPv2EEdkgR4GvP_3ims9A,Booma,"244 Brixton Rd, Vassal, London SW9 6AH, United Kingdom",51.47147229999999,-0.1129104,restaurant,4.7,2
ChIJAYMKmmgEdkgRGYjMYNt3-oc,Franco Manca,"3, 4 Market Row, London SW9 8LD, United Kingdom",51.4619508,-0.113724,restaurant,4.3,1
ChIJycU6Gd8FdkgRtj7uWR0BoIE,The Tapas Room Brixton,"Unit 52, Brixton Village, Coldharbour Ln, London SW9 8PS, United Kingdom",51.4624931,-0.1118135,restaurant,4.2,0
ChIJVY9VqmgEdkgRErzWkaaxaws,Station 26 Gluten-Free Restaurant,"Coldharbour Lane, Unit 26 Brixton Village Market, London SW9 8PR, United Kingdom",51.4625674,-0.1122997,restaurant,4.5,0
ChIJPTGfhlAEdkgRdd0USuGKqNU,The Clapham North,"409 Clapham Rd, London SW9 9BT, United Kingdom",51.465399,-0.1293298,restaurant,4,2
ChIJGYRZ5pUFdkgRXen44JUgN00,Brunswick House,"30 Wandsworth Rd, London SW8 2LG, United Kingdom",51.4847523,-0.1265302,restaurant,4.4,0
ChIJ2SDaAe8EdkgRua0wJIY0qRQ,"Waterfront London Vauxhall Restaurant - Steaks, Sushi, Burgers, Shisha","3 St George Wharf, London SW8 2LE, United Kingdom",51.486247,-0.126157,restaurant,4.4,2
ChIJsXyKpi4FdkgRe4uhXE-vJQ8,Pinto's Portugal Tapas Bar & Restaurant,"Victoria House, 5A-6A, S Lambeth Rd SW8 1QX, United Kingdom",51.48020349999999,-0.1241117,restaurant,4.5,0
ChIJa_WX7fEEdkgRnP3nqFui78w,Mumbai Delight,"51A S Lambeth Rd, London SW8 1RH, United Kingdom",51.4822486,-0.1241444,restaurant,4.5,2
ChIJYVZVMkAFdkgRjBf9GYnpL-I,Tia Maria - Brazilian Bar & Restaurant London,"126 S Lambeth Rd, London SW8 1RB, United Kingdom",51.4809308,-0.124865,restaurant,4,0
ChIJi-KVCu0EdkgRDQBzlsEaAmk,Bonnington Cafe,"11 Vauxhall Grove, London SW8 1TD, United Kingdom",51.4846514,-0.1201611,restaurant,4.6,1
ChIJKefEWPEEdkgRkxKuQJy8KX4,The Three Lions,"125 S Lambeth Rd, London SW8 1XA, United Kingdom",51.4789827,-0.1233739,restaurant,4.5,1
ChIJAep23wQFdkgRgzleMAR9UGo,Lusitania,"353 Wandsworth Rd, London SW8 2JH, United Kingdom",51.47508149999999,-0.1314164,restaurant,4.4,0
ChIJxVqHTfgEdkgRD4dZm8lBnSc,A Toca Restaurant,"341 Wandsworth Rd, London SW8 2JH, United Kingdom",51.4753596,-0.1311737,restaurant,4.4,2
ChIJe12bZvEEdkgRurc62aI4Xys,Nando's Vauxhall Arches,"Arch 56 S Lambeth Rd, London SW8 1SS, United Kingdom",51.4860979,-0.1220457,restaurant,3.9,2
ChIJF2h8t64FdkgR8qDsxSWPiaQ,Vine Bar London,"Unit 7 St George Wharf, London SW8 2LE, United Kingdom",51.48573700000001,-0.125749,restaurant,4.8,0
ChIJZ2Qg6PwEdkgRJfQbhu3WAWg,Chokhi Dhani,"Riverlight Quay, 2 Nine Elms Ln, London SW11 8AW, United Kingdom",51.4820778,-0.1369808,restaurant,4.2,0
ChIJ1a-_IfQEdkgRVPpNfKKZAEQ,Canton Arms,"177 S Lambeth Rd, London SW8 1XP, United Kingdom",51.4771776,-0.1230238,restaurant,4.2,2
ChIJa_WX7fEEdkgRIowMUy9FCbI,Harar Restaurant,"49 S Lambeth Rd, London SW8 1RH, United Kingdom",51.4822991,-0.1241009,restaurant,4.5,1
ChIJ7fUPX_EEdkgRtMRg_7wpzsc,Estrela Bar,"113 S Lambeth Rd, London SW8 1UZ, United Kingdom",51.479297,-0.123425,restaurant,4.3,2
ChIJr2KPu_UEdkgRydrPAit-K8E,Cutural Tapas Bar,"5 Lansdowne Way, London SW8 1HL, United Kingdom",51.4745693,-0.1211037,restaurant,4.6,0
ChIJv2Fi1O0EdkgRhe74LAgu3l0,Dirty Burger Vauxhall,"54, Arches, 6 S Lambeth Rd, London SW8 1SS, United Kingdom",51.48589699999999,-0.1223771,restaurant,4,2
ChIJi1Mlxr4FdkgRN3DG78dmBNk,French Tacos Vauxhall,"Vauxhall Food & Beer Garden 6 A South Lambeth Place Under the bridge, next to Starbucks and Local Sainsbury's Follow the sign Nordic Spirit Summer Garden &, London SW8 1SP, United Kingdom",51.485903,-0.1237459,restaurant,4.9,0
ChIJGzzi5wYFdkgRwxMxaV4kFqI,Boqueria,"278 Queenstown Rd, Nine Elms, London SW8 4LT, United Kingdom",51.476611,-0.1480705,restaurant,4.4,2
ChIJcwFLUu4EdkgRza0rkBC6Z3k,Cottons Vauxhall,"Flagstaff House, 12 Unit, St George Wharf, London SW8 2LE, United Kingdom",51.4858743,-0.1264868,restaurant,3.8,2
ChIJVZmll2EEdkgRASNsRgoHOQk,Mingles Bar & Restaurant Brixton,"260 Brixton Rd, Vassal, London SW9 6AQ, United Kingdom",51.4710537,-0.1128623,restaurant,4,0
ChIJT9N8FWQFdkgR7tSP2kIn_lA,Chishuru,"Unit 9 Market Row, Coldharbour Ln, London SW9 8LB, United Kingdom",51.46211109999999,-0.1137403,restaurant,4.8,0
ChIJHf2Jk2cEdkgRq2T1b2jtAd8,500 Degrees London,"191 Ferndale Rd, London SW9 8BA, United Kingdom",51.4639435,-0.1161294,restaurant,4.6,1
ChIJS4t9A1UEdkgRt_jR1n5jq38,Lebanese Grill II,"523 Wandsworth Rd, London SW8 4PA, United Kingdom",51.470586,-0.1383739,restaurant,4.2,0
ChIJt7NNEQMFdkgRIbazfrXNtAE,Fiume,"Battersea Power Station, Circus West Village, London SW8 5BN, United Kingdom",51.483152,-0.1460446,restaurant,4.2,2
ChIJyZ2EBVUEdkgRX90PaYXNszA,Orit Ethiopian Restaurant and Bar,"388 Wandsworth Rd, Nine Elms, London SW8 4TN, United Kingdom",51.4708263,-0.1383084,restaurant,4.3,1
ChIJpe4PxL4EdkgR6ZrNfLPwuq4,Florentine Restaurant & Bar,"6 Hercules Rd, London SE1 7DU, United Kingdom",51.4980556,-0.1133333,restaurant,4.3,2
ChIJQ_0exakEdkgRQH6ZfUqV450,The Real Greek Bankside,"Riverside House, Units 1&2, 2A Southwark Bridge Rd, London SE1 9HA, United Kingdom",51.5081253,-0.09546819999999999,restaurant,4.1,2
ChIJmeHbYUIFdkgRK4KtI-aRZ7g,Oriental Canteen,"2A Exhibition Rd, South Kensington, London SW7 2HF, United Kingdom",51.49470660000001,-0.1730757,restaurant,3.8,1
ChIJm177DbcEdkgRvzf85avr8OU,The Green Room,"101 Upper Ground, London SE1 9PP, United Kingdom",51.5060873,-0.1138222,restaurant,4.1,2
ChIJx8DB3bAEdkgR7mrW0PisvjU,Sticky Mango,"33 Coin St, London SE1 9NR, United Kingdom",51.5060829,-0.1098249,restaurant,4.3,2
ChIJn2ynlRgFdkgRZmOFJU5XqdU,Sicily Restaurant,"2a Elizabeth St, London SW1W 9RB, United Kingdom",51.4927801,-0.1482687,restaurant,4.3,2
ChIJGRcFC9cEdkgRNQePsgrlWB0,Il Vicolo Ristorante Italiano,"3-4 Crown Passage, St. James's, London SW1Y 6PP, United Kingdom",51.50576599999999,-0.1376386,restaurant,4.4,2
ChIJ1-By1fMPdkgRHFSgAdcS41Y,Kitchen W8,"11-13 Abingdon Rd, London W8 6AH, United Kingdom",51.499072,-0.196844,restaurant,4.5,3
ChIJyy4RJ2EFdkgRUDjLEscRSv0,Noorjahan,"2A Bina Gardens, South Kensington, London SW5 0LA, United Kingdom",51.4910519,-0.1829024,restaurant,4.1,2
ChIJjdhaYiwbdkgR_SuA9p18OqU,CERU South Kensington,"7-9 Bute St, South Kensington, London SW7 3EY, United Kingdom",51.493426,-0.176283,restaurant,4.5,2
ChIJCTfc2XIEdkgRzN35IaDcp0Q,Bufala,"135 Dulwich Rd, London SE24 0NG, United Kingdom",51.4526152,-0.1027387,restaurant,0,0
ChIJ7_CN6AgPdkgRnNDkwPS2lVM,Utter Waffle,"119 Dulwich Rd, London SE24 0NG, United Kingdom",51.4528431,-0.1035152,restaurant,4.8,0
ChIJL6crOpQFdkgRzfEFlOYVHrc,Peachy Goat,"16 Half Moon Ln, London SE24 9HU, United Kingdom",51.4528252,-0.1003133,restaurant,4.9,0
ChIJhYATNXMEdkgR8ovDWcRFJYQ,Saray Turkish & Mediterranean Restaurant,"21-23 Norwood Rd, London SE24 9AA, United Kingdom",51.45202,-0.101154,restaurant,4.5,0
ChIJ35SN4HIEdkgR2J0HhGI6RMo,Llewelyn's,"293-295 Railton Rd, London SE24 0JP, United Kingdom",51.453297,-0.102751,restaurant,4.5,2
ChIJTUMVPHMEdkgRb-A55AdX_Ko,Matchstic,"290 Milkwood Rd, London SE24 0EZ, United Kingdom",51.4529808,-0.1015071,restaurant,5,0
ChIJoTulJEYFdkgRlswPzBpyquA,Noughts and Croquettes,"877 Rosendale Rd, Norwood, London SE24 9EH, United Kingdom",51.44819829999999,-0.1018663,restaurant,5,0
ChIJR2sftwwEdkgRjQj_l2X--ac,Park's Edge Bar and Kitchen,"49, 51 Norwood Rd, London SE24 9AA, United Kingdom",51.451404,-0.100754,restaurant,4.6,2
ChIJc7d8PnMEdkgRGylvhqB5l-E,Pizza Express,"136-140 Herne Hill, London SE24 9QH, United Kingdom",51.4530245,-0.1013158,restaurant,3.9,2
ChIJrRuyRksFdkgRQgAvZw5na58,Breakfast & Chill,"290 Milkwood Rd, London SE24 0EU, United Kingdom",51.4529808,-0.1015071,restaurant,0,0
ChIJgXOw23IEdkgRpO61s6BJESA,500 Degrees,"153A Dulwich Rd, London SE24 0NG, United Kingdom",51.4525161,-0.1020778,restaurant,4.5,1
ChIJmbVAXXMEdkgRbLChNkeJcyg,Lombok Thai,"17 Half Moon Ln, London SE24 9JU, United Kingdom",51.4531139,-0.1001478,restaurant,4.3,2
ChIJ-0SxYwsEdkgR4KwoRPpgaS8,Umana Yana,"294 Croxted Rd, London SE24 9DA, United Kingdom",51.4504495,-0.1004046,restaurant,4.8,1
ChIJLwS4ip4FdkgR6PPEGfJt3oE,Four Hundred Rabbits: Pizza Restaurant Herne Hill,"The Lido Cafe (Now 400 Rabbits), Dulwich Rd, London SE24 0PA, United Kingdom",51.4533363,-0.1062194,restaurant,4.4,0
ChIJXW7KwHIEdkgRsG9eE-7AqL4,Little Ochi Seafood Restaurant,"113 Dulwich Rd, London SE24 0NG, United Kingdom",51.4529556,-0.1038556,restaurant,4.2,2
ChIJY4FC2nIEdkgR1ntDmxvSHpc,The Florence,"131 Dulwich Rd, London SE24 0NG, United Kingdom",51.4527167,-0.1029872,restaurant,4.1,2
ChIJC20ranoFdkgRYPYpu4KxiD4,VSource,"107 Dulwich Rd, London SE24 0NQ, United Kingdom",51.4529698,-0.1041089,restaurant,4.8,0
ChIJg3Ow23IEdkgRRmWO6ZVC4bQ,127 Bar and Restaurant,"127 Dulwich Rd, London SE24 0NG, United Kingdom",51.4527855,-0.1032613,restaurant,4.2,1
ChIJgaZEdpgFdkgRaDtYCGuFxnQ,The Agile Rabbit,"214-216 Railton Rd, London SE24 0JT, United Kingdom",51.4529848,-0.1026124,restaurant,4.1,0
ChIJK2FPYG4FdkgRkU7j06Ilwbg,Green Parrot Lounge,"222 Railton Rd, London SE24 0JN, United Kingdom",51.4528287,-0.1024617,restaurant,4.4,0
ChIJNaMDSaMFdkgRDmPy-EZiLXI,Avenida Brasil UK,"74-76 Lansdowne Way, London SW8 2DQ, United Kingdom",51.4746911,-0.1252319,restaurant,4.1,0
ChIJ16v9-6gFdkgRu5nBdg5e960,Santa Maria del Sur,"129 Queenstown Rd, London SW8 3RH, United Kingdom",51.4702058,-0.1497249,restaurant,4.5,3
ChIJeV8x-vsFdkgRBgya-MxRyn0,LASSCO Brunswick House,"30 Wandsworth Rd, London SW8 2LG, United Kingdom",51.4847664,-0.1264412,restaurant,4.4,2
ChIJiZLDqvYEdkgRHcm4utKFW00,Grelha D'Ouro,"151-153 S Lambeth Rd, London SW8 1XN, United Kingdom",51.478103,-0.123252,restaurant,4.3,2
ChIJ45HYMqsFdkgRDh8p_wI4ans,Gordon Ramsay Restaurants,"539-547, Wandsworth Rd, London SW8 3JD, United Kingdom",51.4701167,-0.1394679,restaurant,4.1,0
ChIJvRlEVRsFdkgRAbdm-baRHJU,No 29 Power Station West,"29 Circus West Battersea Power Station, London SW11 8NN, United Kingdom",51.4833537,-0.1466851,restaurant,3.9,2
ChIJERVIg3cFdkgRl1bmniFpMFQ,London House - Gordon Ramsay,"7-9 Battersea Square, London SW11 3RA, United Kingdom",51.4752521,-0.175253,restaurant,4.1,3
ChIJRzX0mDkFdkgR-qAx8kL982A,Dinner by Heston Blumenthal,"66 Knightsbridge, London SW1X 7LA, United Kingdom",51.502161,-0.159964,restaurant,4.6,4
ChIJOzGxYHUCdkgRddbEpyN6QeQ,H-2-U,"Lucky Chinese Take Away, 25 Staplehurst Rd, London SE13 5ND, United Kingdom",51.4533202,-0.0004043,restaurant,3.7,0
ChIJqU4rI6YEdkgR-DeXL18zHfM,Bread Street Kitchen & Bar - Southwark,"47-51 Great Suffolk St, London SE1 0BS, United Kingdom",51.5035938,-0.101239,restaurant,4.2,2
ChIJdURZsfcZdkgRgpJS8alDBK0,Greek Deli 2 U,"6A Chase Side, London N14 5PA, United Kingdom",51.6327291,-0.127746,restaurant,0,0
ChIJHdc2Rq0FdkgRNkQ9YeRS1ig,Trinity,"4 The Polygon, London SW4 0JG, United Kingdom",51.4634607,-0.1415212,restaurant,4.7,3
ChIJsc02i00EdkgR7Fs9lfcfnXU,@ Bar,"165 Clapham High St, London SW4 7SS, United Kingdom",51.462105,-0.13709,restaurant,3.6,2
ChIJe3Va2EoEdkgRUbvmmsICN1o,Bistro Union,"40 Abbeville Rd, London SW4 9NG, United Kingdom",51.45432599999999,-0.139749,restaurant,4.2,2
ChIJxcdQV00EdkgRKQX2UVNnheE,Minnow,"21 The Pavement, London SW4 0HY, United Kingdom",51.46212449999999,-0.139886,restaurant,4.3,2
ChIJ_8jBIVIEdkgRVpCMg_y7ISI,Sorella,"148 Clapham Manor St, London SW4 6BX, United Kingdom",51.4638023,-0.134998,restaurant,4.5,2
ChIJsYkDZk0EdkgRHBYsQs1hb2U,MamaLan Clapham | Chinese Street Food & Bubble Tea,"8 The Pavement, London SW4 0HY, United Kingdom",51.46190439999999,-0.1389865,restaurant,3.9,2
ChIJsdJAU1AEdkgRlBEM_EzxetI,Tsunami,"5-7 Voltaire Rd, London SW4 6DQ, United Kingdom",51.464703,-0.1314118,restaurant,4.2,3
ChIJF-sPTa0FdkgReEuufSaj_7A,No 32 The Old Town,"32 The Pavement, London SW4 0JE, United Kingdom",51.4631747,-0.1406386,restaurant,4.1,2
ChIJ2fTw4EUFdkgRmwK2LWcn9nQ,St Clair,"22 The Pavement, London SW4 0HY, United Kingdom",51.4621465,-0.1400187,restaurant,4.8,0
ChIJCdydQTwFdkgRLRWkVchU7NQ,Megan's,"55-57 The Pavement, London SW4 0JQ, United Kingdom",51.4634095,-0.1407742,restaurant,4.2,2
ChIJF3ZorVEEdkgRzeyRLe5e03g,MOMMI,"44-48 Clapham High St, London SW4 7UR, United Kingdom",51.464093,-0.132371,restaurant,4.2,2
ChIJV_qOwFEEdkgRRmVkaeLFxDc,La Rueda,"66 Clapham High St, London SW4 7UL, United Kingdom",51.4637366,-0.1331945,restaurant,4.1,2
ChIJXzK1eVIEdkgRm4ZaMtcxtNU,Eco Restaurant,"162 Clapham High St, London SW4 7UG, United Kingdom",51.462508,-0.1365952,restaurant,4.1,2
ChIJ9essiFAEdkgRjHVr-hCfOOE,Sappho Meze Bar,"9 Clapham High St, London SW4 7TS, United Kingdom",51.4649905,-0.1298275,restaurant,4.7,1
ChIJsXcy7lEEdkgRD6m-4LqLqFA,Haché Clapham,"153 Clapham High St, London SW4 7SS, United Kingdom",51.462218,-0.136508,restaurant,4.2,2
ChIJqZOpkqwFdkgRLRYmwl30pUo,The Bobbin,"1-3 Lillieshall Rd, London SW4 0LN, United Kingdom",51.466337,-0.1428821,restaurant,4.3,2
ChIJX91s61EEdkgRFolyo40-lpo,Aquum,"68-70 Clapham High St, London SW4 7UL, United Kingdom",51.46371389999999,-0.1331929,restaurant,3.5,2
ChIJC-WxO60FdkgRy-fqIDRCsMM,Zumbura,"36A Old Town, London SW4 0LB, United Kingdom",51.4639736,-0.1418398,restaurant,4.2,2
ChIJEYK32bUFdkgR7RcNxrLWAB4,Pizzeria on the Green,"4 Cavendish Rd, London SW4 9DW, United Kingdom",51.4538355,-0.146274,restaurant,4.5,1
ChIJPW3weWUEdkgRRz0DoCNw4wg,Bánh Bánh Cafe Brixton,"326 Coldharbour Ln, London SW9 8QH, United Kingdom",51.463027,-0.1080965,restaurant,4.6,2
ChIJmxe8mWgEdkgRpeN3F_mqkn0,Asmara Restaurant,"386 Coldharbour Ln, London SW9 8LF, United Kingdom",51.4618817,-0.1123608,restaurant,4.4,1
ChIJ2-dJEGYEdkgRr7jfIhv8I7o,THE BRICKSTONE,"256-258 Brixton Rd, Vassal, London SW9 6AQ, United Kingdom",51.4711256,-0.1128,restaurant,4.4,0
ChIJTTD8FmYEdkgRrjJsxxGP0yw,Damera Restaurant,"21 Brixton Station Rd, London SW9 8PB, United Kingdom",51.4633798,-0.1134202,restaurant,4.6,0
ChIJ13cd7PkEdkgRryTdl4V57V8,Enset Ethiopian Restaurant,"176 Wandsworth Rd, London SW8 2LA, United Kingdom",51.4769091,-0.1303468,restaurant,4.6,0
ChIJFTMRjekFdkgRNMUgOPPr5VY,Chez Bruce,"2 Bellevue Rd, London SW17 7EG, United Kingdom",51.4460039,-0.1656468,restaurant,4.8,3
ChIJY4X5z1UEdkgRZCzKUQavb0w,McDonald's Wandsworth Road,"368, 370 Wandsworth Rd, Nine Elms, London SW8 4ET, United Kingdom",51.4715767,-0.1370268,restaurant,3.5,1
ChIJQTKLH_EEdkgRJoUSRkQbklU,O Fumeiro @ O Louro,"52-54 Wilcox Rd, London SW8 2UX, United Kingdom",51.479432,-0.126156,restaurant,4.2,2
ChIJPf-zRgEFdkgRjN05hcwo1ws,Pho Ta Battersea,"151 Battersea Park Rd, Nine Elms, London SW8 4BX, United Kingdom",51.4772091,-0.1460348,restaurant,4.6,1
ChIJcYNRlRkPdkgRCy3ZmRNXbnI,London Stock,"2 Bubbling Well Square Ram Quarter SW18 1UQ, United Kingdom",51.4570018,-0.1923864,restaurant,4.8,0
ChIJjY3MXvEEdkgRDVDlcv0rAyU,Mr Chinese,"129 S Lambeth Rd, London SW8 1XA, United Kingdom",51.4787977,-0.1232608,restaurant,2.2,0
ChIJEYfH57cEdkgRXWutRlVSn04,Casa Madeira,"46b Albert Embankment, London SE1 7TL, United Kingdom",51.4886972,-0.1227373,restaurant,4.3,2
ChIJk8MRsfEEdkgRQ_QqGGTNcD0,The Griffin Belle,"8 Wyvil Rd, London SW8 2TH, United Kingdom",51.481648,-0.125624,restaurant,4.3,0
ChIJk8CtHN8EdkgR836GZws-7Bw,M Victoria Street,"Zig Zag Building, 74 Victoria St, London SW1E 6SQ, United Kingdom",51.4972054,-0.1388244,restaurant,4.4,3
ChIJWxa4PlEFdkgRIULkrd0GUv0,Wild Tavern,"2 Elystan St, London SW3 3NS, United Kingdom",51.4907187,-0.1658202,restaurant,4.6,0
ChIJCfYDlWgFdkgRe6ewfzZEOG8,The Hunter's Moon,"86 Fulham Rd., South Kensington, London SW3 6HR, United Kingdom",51.4900583,-0.1748019,restaurant,4.7,0
ChIJr2MFDWoFdkgRsUDJT3bIDUo,Claude Bosi at Bibendum,"Michelin House, 81 Fulham Rd., London SW3 6RD, United Kingdom",51.493331,-0.16893,restaurant,4.3,0
ChIJP7GmKD8FdkgRn9vcCMGzNCM,Harry's Dolce Vita,"27-31 Basil St, London SW3 1BB, United Kingdom",51.4984891,-0.161764,restaurant,4.1,3
ChIJzYe4xGoFdkgRz1releWSMkk,The Good Life Eatery,"59 Sloane Ave, London SW3 3DH, United Kingdom",51.4919453,-0.1653367,restaurant,4,2
ChIJ85yMLlgDdkgRBtDiuhyHJ6U,Ev Restaurant,"The Arches, 98 Isabella St, London SE1 8DD, United Kingdom",51.5041547,-0.1062374,restaurant,4.2,2
ChIJdUTRSaUEdkgRtt99a8gdXPY,Baltic Restaurant and Bar,"74 Blackfriars Rd, London SE1 8HA, United Kingdom",51.5034637,-0.1047989,restaurant,4.5,2
ChIJyWK_bccEdkgRe5PnoNXATxU,Hannah Japanese restaurant,"Southbank Riverside, Belvedere Rd, London SE1 7PB, United Kingdom",51.5012139,-0.1185127,restaurant,4.5,0
ChIJc9ewd8cEdkgRaZTL8OkiknM,OKAN South Bank,"County Hall, Belvedere Rd, London SE1 7PB, United Kingdom",51.5020058,-0.1182738,restaurant,4.6,2
ChIJF_gtIrEEdkgREZpcR8X3yc8,The Wharf Restaurant,"56 Upper Ground, London SE1 9PP, United Kingdom",51.508132,-0.110327,restaurant,4,2
ChIJI5wNG7oEdkgRfsNOnfQxnLw,Auberge,"1 Sandell St, London SE1 8UH, United Kingdom",51.5036952,-0.110909,restaurant,3.8,2
ChIJOaAsuLoEdkgROF_VPpSeJ9Y,Tas Restaurant The Cut,"33 The Cut, London SE1 8LF, United Kingdom",51.5032649,-0.1064074,restaurant,4,2
ChIJDS6gIFEbdkgREYWoc5aU_hU,Azzurro,"1 Sutton Walk, London SE1 7ND, United Kingdom",51.50445029999999,-0.1146752,restaurant,3.9,2
ChIJ-dIacMcEdkgR26q2oYKCGYM,Westminster Kitchen Grill House,"3A/B Belvedere Rd, London SE1 7GP, United Kingdom",51.5011845,-0.1181667,restaurant,3.6,2
ChIJSyY-7boEdkgR-g1-FxQMLQY,The Cut Bar & Restaurant,"66 The Cut, London SE1 8LZ, United Kingdom",51.5030947,-0.1077081,restaurant,4.2,2
ChIJsUtbnLcEdkgRMJiZdbp_fSM,wagamama,"riverside level royal festival hall, London SE1 8XX, United Kingdom",51.5057744,-0.1176507,restaurant,4.2,2
ChIJ85yMLlgDdkgRT2yPc1bYWlw,Tas Restaurant Borough,"72 Borough High St, London SE1 1XF, United Kingdom",51.50384769999999,-0.0913725,restaurant,4.1,2
ChIJQ9PpMq8EdkgRGzQVuOCoIgQ,The Refinery,"110 Southwark St, London SE1 0TF, United Kingdom",51.5058449,-0.0995515,restaurant,3.9,2
ChIJ5f-86aQEdkgRqgQFFAKyljY,The Laughing Gravy,"154 Blackfriars Rd, London SE1 8EN, United Kingdom",51.501038,-0.1041017,restaurant,4.5,3
ChIJT9Abs1cDdkgR5_S8hTw60Nw,wagamama,"1 Clink St, London SE1 9BU, United Kingdom",51.5072185,-0.0925502,restaurant,4.1,2
ChIJ0X_QnlcDdkgRXJAdW8Buk8Y,Gourmet Goat,"Rochester Walk, London SE1 9AF, United Kingdom",51.5056314,-0.091052,restaurant,4.6,0
ChIJX6j6VLYEdkgRirSjjePr4MU,Terrace Restaurant,"National Theatre, South Bank, London SE1 9PX, United Kingdom",51.5074953,-0.1148885,restaurant,4,2
ChIJm9KSxN4FdkgRHfsBC4jrxKM,28-50 Covent Garden,"10 Upper St Martin's Ln, London WC2H 9FB, United Kingdom",51.51266,-0.126929,restaurant,4.5,0
ChIJeRmWQaMEdkgRxzs1yBsmrSQ,Paladar,"4-5 London Rd, London SE1 6JZ, United Kingdom",51.4981401,-0.104369,restaurant,4.7,2
ChIJ-0sYC0UFdkgR22MCL9yb9sQ,Happy London,"25-29 Coventry St, London W1D 7AG, United Kingdom",51.5101534,-0.1324234,restaurant,4.4,0
ChIJlQFx01gFdkgRkchWrnmDM-E,Launceston Place,"1A Launceston Pl, London W8 5RL, United Kingdom",51.4992044,-0.185429,restaurant,4.8,3
ChIJ2Qu8ycwEdkgRAGMpL0ZIvEs,Circus,"27-29 Endell St, London WC2H 9BA, United Kingdom",51.5144779,-0.1246707,restaurant,4.2,3
ChIJP1Z1gkQFdkgRsyjCnpNoYsM,Ognisko Restaurant,"55 Exhibition Rd, London SW7 2PG, United Kingdom",51.4991011,-0.1739026,restaurant,4.6,2
ChIJUX1zvs8FdkgRKzz6ozok5pk,The Exhibit Bar & Restaurant,"12 Balham Station Rd, London SW12 9SG, United Kingdom",51.4433333,-0.1513889,restaurant,4,2
ChIJbc-9tKgEdkgR2qNGtGhKWLc,The Table Café,"83 Southwark St, London SE1 0HX, United Kingdom",51.5054876,-0.09974469999999999,restaurant,4.2,2
ChIJU-yarVcDdkgRHqVwaZJUCEI,Bill's Clink Street Restaurant,"Victor Wharf, Clink St, London SE1 9DW, United Kingdom",51.50696019999999,-0.0915827,restaurant,4.1,2
ChIJcb5nuUUDdkgRp2TnVMSprT0,Restaurant Story,"199 Tooley St, London SE1 2JX, United Kingdom",51.5027614,-0.0777802,restaurant,4.6,4
ChIJP0Q8MVYDdkgRtBvxxrSUq6M,Level 9,"Level 9 Blavatnik Building, Bankside, London SE1 9TG, United Kingdom",51.5076169,-0.1002895,restaurant,4,0
ChIJTYu2LVcDdkgR9ubhY4KIqFw,'O Ver Borough - Italian Restaurant,"44-46 Southwark St, London SE1 1UN, United Kingdom",51.5048887,-0.0939663,restaurant,4.5,2
ChIJU_Bb0KgEdkgRsl3L5rlha3g,LEON,"7 Canvey St, London SE1 9AN, United Kingdom",51.506482,-0.09953899999999999,restaurant,4.1,1
ChIJu_J6ZVcDdkgRkD2afZ4eMfc,Silka Borough Market,"6 Southwark St, London SE1 1TQ, United Kingdom",51.5050411,-0.09001160000000001,restaurant,4.3,2
ChIJA6RcmFcDdkgRhKbA3VHeY5U,Elliot's - Borough Market,"12 Stoney St, London SE1 9AD, United Kingdom",51.5056918,-0.09160599999999999,restaurant,4.2,2
ChIJe3YEa68EdkgRGraN7Vp8Nxk,Oxbo,"Bankside, 2-8 Great Suffolk St, London SE1 0UG, United Kingdom",51.505725,-0.101032,restaurant,4.3,2
ChIJITWxnVcDdkgROO02UGfZ_BA,Arthur Hooper's,"8 Stoney St, London SE1 9AA, United Kingdom",51.505329,-0.091221,restaurant,4.5,2
ChIJaQcSWkUDdkgRMpx0H5Ok-TA,The Brigade Bar + Kitchen,"139 Tooley St, London SE1 2HZ, United Kingdom",51.5040638,-0.081177,restaurant,4.3,2
ChIJYTkglbEEdkgR5_2AN3mE4a4,Sea Containers Restaurant,"20 Upper Ground, London SE1 9PD, United Kingdom",51.50813429999999,-0.1067489,restaurant,4,3
ChIJm3yRblcDdkgRVAYySMtg0T8,Rabot London,"2-4 Bedale St, London SE1 9AL, United Kingdom",51.50533009999999,-0.08996870000000001,restaurant,4.4,2
ChIJxUecicwEdkgRkQlxXp_bdBg,Roast,"The Floral Hall, Stoney St, London SE1 1TL, United Kingdom",51.5056314,-0.091052,restaurant,4.1,3
ChIJq7MIjUUDdkgRIplwj6gup18,The Coal Shed,"One Tower Bridge, London SE1 2SE, United Kingdom",51.5037323,-0.0780037,restaurant,4.3,3
ChIJHc02i00EdkgRZs4pZUxzZFE,Railway Tavern London Sw4,"18 Clapham High St, London SW4 7UR, United Kingdom",51.4645591,-0.1312161,restaurant,4.2,2
ChIJY9IfdEsEdkgRl-it_FrmnLo,The Abbeville,"67-69 Abbeville Rd, London SW4 9JW, United Kingdom",51.4549437,-0.1394686,restaurant,4.3,2
ChIJGXqigFIEdkgRLqKb_Lt6_6s,Argan Restaurant,"73 Venn St, London SW4 0BD, United Kingdom",51.4625728,-0.1377668,restaurant,4,2
ChIJc_g0NK0FdkgRCZ-vyr8ehh4,Sun,"47 Old Town, London SW4 0JL, United Kingdom",51.4639835,-0.1409826,restaurant,4.2,2
ChIJMZ5IQ1IEdkgRfb9X8C3zTgk,The Stonhouse,"165 Stonhouse St, London SW4 6BJ, United Kingdom",51.46395829999999,-0.1369942,restaurant,4.3,0
ChIJkZbsj04EdkgRGsJAWbn1z04,The King & Co,"100 Clapham Park Rd, London SW4 7BZ, United Kingdom",51.45948569999999,-0.1341563,restaurant,4.5,2
ChIJXWauCIwFdkgR0oyhl-R7d7M,Osteria Toscana,"31 Abbeville Rd, London SW4 9LA, United Kingdom",51.45397269999999,-0.1405695,restaurant,4.4,0
ChIJ36APYg0FdkgR8DRF4-44s_k,Upstairs,"4 The Polygon, London SW4 0JG, United Kingdom",51.4635207,-0.1415201,restaurant,4.6,0
ChIJKTPAHKEFdkgRMsx9diRjTOs,No3 at Nightingale Place,"Nightingale Ln, Nightingale Place, London SW4 9AH, United Kingdom",51.4528756,-0.1487545,restaurant,4.6,0
ChIJbcuN1koEdkgRfqE0R3FiLLc,Pizza Express,"43 Abbeville Rd, London SW4 9JX, United Kingdom",51.454294,-0.1402061,restaurant,4.2,2
ChIJEUMPBiUFdkgR22qTmtSRKjE,Seabird,"40 Blackfriars Road 14th Floor, South Bank, London SE1 8NY, United Kingdom",51.5056667,-0.1047752,restaurant,4.4,0
ChIJqeWB97cEdkgRWISvWdS1_Gs,Southbank Mediterranean Restaurant - aka Troia,"Unit 3F, County Hall, Belvedere Rd, London SE1 7GQ, United Kingdom",51.50211640000001,-0.1178331,restaurant,4,2
ChIJEYfH57cEdkgRyxfvZJrZDu8,Skylon,"Belvedere Rd, Royal Festival Hall, London SE1 8XX, United Kingdom",51.505722,-0.1174495,restaurant,4,3
ChIJTwN4u7cEdkgRbwAE8TJujq8,Wahaca Southbank,"Queen Elizabeth Hall, Southbank Centre, Belvedere Rd, London SE1 8XX, United Kingdom",51.5070237,-0.1161411,restaurant,4.2,2
ChIJXRAAolcDdkgRbK3PPQWmffY,Black & Blue,"1-2 Rochester Walk, London SE1 9AF, United Kingdom",51.50583940000001,-0.09143219999999999,restaurant,4.2,2
ChIJF_wmescEdkgRC1Z3g-tIA-A,La Cucina Di Mamma,"3j, 3k Belvedere Rd, London SE1 7GQ, United Kingdom",51.5024037,-0.1177272,restaurant,3.8,2
ChIJi3KpRuoEdkgRaQcHm3-eWaM,POTUS Bar & Restaurant,"10 Albert Embankment, London SE1 7SP, United Kingdom",51.491842,-0.1214761,restaurant,4.7,0
ChIJEYfH57cEdkgRk_UL6iZxlIc,Las Iguanas - London - Royal Festival Hall,"Southbank Centre, Festival Terrace, London SE1 8XX, United Kingdom",51.5055791,-0.1175676,restaurant,4,2
ChIJ8W1157cEdkgRV8JRttJsjcQ,Strada Southbank,"A, Royal Festival Hall, 337-338 Belvedere Rd, London SE1 8XX, United Kingdom",51.505878,-0.1173663,restaurant,4.1,2
ChIJe4fSn-0EdkgRScyCaeWxmEk,Italo,"13 Bonnington Square, London SW8 1TE, United Kingdom",51.4844852,-0.1202878,restaurant,4.7,2
ChIJc-4ZSkgFdkgRzf_ljL7pL0Q,LINNAEAN,"Embassy Gardens, 2 New Union Square, Nine Elms, London SW11 7AX, United Kingdom",51.4823473,-0.1354636,restaurant,4.5,0
ChIJSaGTpm0FdkgRFl9KY74LgtQ,The Phene,"9 Phene St, London SW3 5NY, United Kingdom",51.48517400000001,-0.167575,restaurant,4.1,3
ChIJieGfWGQFdkgRPHpkutDBSjg,The Chelsea Cellar,"9 Park Walk, London SW10 0AJ, United Kingdom",51.486017,-0.179984,restaurant,4.8,0
ChIJuUypYhUFdkgRih6cHcixDbc,Ristorante Cappuccetto,"8-9 Moore St, London SW3 2QN, United Kingdom",51.49385729999999,-0.1622565,restaurant,0,0
ChIJlRcZynoFdkgR0we2mTUEuTs,Medlar,"438 King's Rd, London SW10 0LJ, United Kingdom",51.483142,-0.177734,restaurant,4.7,3
ChIJ-_qszRUFdkgR-2iXF3_L5-c,Manicomio Chelsea Restaurant,"83-85 Duke Of York Square, London SW3 4LY, United Kingdom",51.4912002,-0.1590714,restaurant,4.1,3
ChIJV-2-_qgFdkgR5x466OCQcjw,Tonis Amalfi,"123 Queenstown Rd, London SW8 3RH, United Kingdom",51.4699861,-0.1498394,restaurant,4.8,2
ChIJJSHwV18EdkgRCDKjU7g_nBI,Jack's Cafe London,"Jacks Cafe, JCL:, 350 S Lambeth Rd, London SW8 1UQ, United Kingdom",51.47283669999999,-0.1224863,restaurant,4.7,0
ChIJWTP6lXEFdkgR_MqGsCx7Ca8,Mad Break,"111 Streatham Hill, London SW2 4UG, United Kingdom",51.4383291,-0.1265562,restaurant,5,0
ChIJUXEpCoMGdkgRu-JmFm4IN2Y,Al-Jazeera Somali Restaurant London,"2 Gleneagle Rd, London SW16 6AB, United Kingdom",51.42726,-0.1317019,restaurant,4.6,1
ChIJNz_QEOYFdkgRYARWRifkqRM,SAHARA CAFE,"110 Streatham High Rd, London SW16 1BS, United Kingdom",51.4343946,-0.1285794,restaurant,4.7,0
ChIJER9yoIMGdkgRNPnjqzoJGPs,Somali Town Restaurant,"10 Gleneagle Rd, London SW16 6AB, United Kingdom",51.4271564,-0.1318037,restaurant,4.6,1
ChIJtw9RoNcEdkgReDOLHI6I1gg,Avenue,"7-9 St James's St, St. James's, London SW1A 1EE, United Kingdom",51.5058584,-0.1382028,restaurant,4.2,2
ChIJkYL7IK8FdkgRfuPqpKE4SPw,Premier Inn London Clapham hotel,"638-640 Wandsworth Rd, London SW8 3JW, United Kingdom",51.4665068,-0.1496646,restaurant,4.4,0
ChIJA-mli20DdkgRCqqh5U97ujc,Bokit'la,"337 Kennington Park Rd, London SE11 4PW, United Kingdom",51.4814666,-0.1122026,restaurant,5,0
ChIJv1KlM8kFdkgRQ3AozHU-pmg,Ganymede SW1,"139 Ebury St, London SW1W 9QU, United Kingdom",51.4933251,-0.1500307,restaurant,5,0
ChIJl381_ewEdkgRICMBqcXSYR4,Kennington Lane Cafe..,"383 Kennington Ln, London SE11 5QY, United Kingdom",51.4860873,-0.1210618,restaurant,4.8,1
ChIJX_k6CzMddkgR-I7gVEjtD-U,Zay Sushi,"150B Newington Butts, London SE11 4RN, United Kingdom",51.4909696,-0.1037217,restaurant,4.9,0
ChIJ6al12pcFdkgR7cK3upCg26U,The Pem,"22-28 Broadway, London SW1H 0BH, United Kingdom",51.4995427,-0.133235,restaurant,4.9,0
ChIJ5ZXMg_wFdkgR4VGovReMHdk,Collective - Kennington Park Cafe,"Kennington Park cafe inside Kennington Park, 4 St Agnes Pl, London SE11 4BE, United Kingdom",51.48307699999999,-0.108362,restaurant,4.5,0
ChIJtc1xspkEdkgRW4g71z3bYbE,Toulouse Lautrec,"140 Newington Butts, London SE11 4RN, United Kingdom",51.4911173,-0.103371,restaurant,4.5,2
ChIJu0M_55MEdkgRk-M5Mm_FdHE,"Amici Mediterranean and Doost Persian Bar, Grill & Delicatessen","205-209 Kennington Ln, London SE11 5QS, United Kingdom",51.4875351,-0.1118174,restaurant,4.5,0
ChIJ1WBYaggFdkgRI_RvTld6DlY,Nue Ground,"9 Churchyard Row, London SE11, United Kingdom",51.4925448,-0.1025732,restaurant,4.6,0
ChIJEYE_3uoEdkgRcYQBTGRpRAM,Queens Head,"71 Black Prince Rd, London SE11 6AB, United Kingdom",51.49168599999999,-0.118929,restaurant,4.5,1
ChIJz6d00SrHdkgRndkpFezy8SQ,Madeira Star,"337-341 Kennington Rd, London SE11 4QE, United Kingdom",51.487441,-0.1110685,restaurant,4.5,1
ChIJp-Xb-pEEdkgR2ycwDHaw3NY,Cocos Bar & Kitchen,"238 Kennington Park Rd, London SE11 4DA, United Kingdom",51.48396349999999,-0.1107839,restaurant,4.4,2
ChIJqRZXsZkEdkgRSE8or-m9qAo,Saint Gabriel Cafe,"154 Newington Butts, London SE11 4RN, United Kingdom",51.4909682,-0.1038902,restaurant,4.7,2
ChIJs9x0eOwEdkgRD1LEhbiA3WM,The Black Dog,"112 Vauxhall Walk, London SE11 5ER, United Kingdom",51.4887096,-0.1208667,restaurant,4.3,2
ChIJx4u5sk8FdkgRHrKjcqghssQ,Kuma Korean & Japanese,"305 Kennington Rd, London SE11 4QE, United Kingdom",51.4882684,-0.1109607,restaurant,4.8,0
ChIJL53i56IEdkgR599IiuTACXM,The Prince of Wales,"51 St George's Rd, London SE1 6ER, United Kingdom",51.4956337,-0.1038586,restaurant,4.6,1
ChIJz2HMUpEEdkgRKBDcg__XDw0,The Tommyfield,"185 Kennington Ln, London SE11 4EZ, United Kingdom",51.4886535,-0.1108664,restaurant,4.2,0
ChIJw557YUcEdkgR7ANv_I8AvE4,The Clink Brixton,"HMP Brixton, Jebb Ave, Brixton Hill, London SW2 5XF, United Kingdom",51.4519672,-0.1256316,restaurant,4.7,2
ChIJ53uDd0wPdkgRWuSvUg6005k,En Root,"5, Ascot Parade, Clapham Park Rd, London SW4 7EY, United Kingdom",51.4598709,-0.1295988,restaurant,4.8,0
ChIJh6bTsUEEdkgREMjcBccmwHQ,Curry Paradise Brixton,"87, 89 Brixton Hill, London SW2 1AA, United Kingdom",51.4549525,-0.1192852,restaurant,4.2,2
ChIJl0YTV0QEdkgRCfugsF4Aa5M,True Flavours Caribbean Cuisine,"101 Acre Ln, Brixton Hill, London SW2 5TU, United Kingdom",51.4594923,-0.1254124,restaurant,4.3,2
ChIJLf7AEaYDdkgRtoySw4VaPQM,Levan,"12-16 Blenheim Grove, London SE15 4QL, United Kingdom",51.46967799999999,-0.06925909999999999,restaurant,4.5,0
ChIJK777lUkDdkgRSZYQcIN_tFA,Nandine (Camberwell Church Street),"45 Camberwell Church St, London SE5 8TR, United Kingdom",51.4739111,-0.0894507,restaurant,4.7,0
ChIJobyta38DdkgRBwEEhoZNIYc,Caravaggio Italian Restaurant,"47 Camberwell Church St, London SE5 8TR, United Kingdom",51.47390009999999,-0.0893852,restaurant,4.4,2
ChIJL2Od25gDdkgRJPb87bzqpks,Artusi,"161 Bellenden Rd, London SE15 4DH, United Kingdom",51.4666876,-0.0727771,restaurant,4.6,2
ChIJfY7AT_UDdkgRF2ch8sfQVJg,Casa do Frango London Bridge,"32 Southwark St, London SE1 1TU, United Kingdom",51.50493340000001,-0.09272319999999999,restaurant,4.4,2
ChIJdZ6paFcDdkgRpPUHPngIeq8,Padella,"6 Southwark St, London SE1 1TQ, United Kingdom",51.5050445,-0.0899857,restaurant,4.6,1
ChIJ70dbCqkEdkgR_2rXCHnP0aQ,Swan at the Globe,"21 New Globe Walk, Bankside, London SE1 9DT, United Kingdom",51.5082418,-0.09652360000000001,restaurant,4.3,2
ChIJIZpqaqkFdkgRT_GRt96-woY,Casa Mofongo Bar Restaurant,"152 Loughborough Rd, London SW9 7LL, United Kingdom",51.4670555,-0.1053635,restaurant,4.6,1
ChIJ24SnGIwEdkgRP8eWT18znyc,Adulis,"44-46 Brixton Rd, London SW9 6BT, United Kingdom",51.4794427,-0.1118762,restaurant,4.5,2
ChIJaZBwuNYFdkgRdYuw7gbHYlM,Roast of Brixton,"roast of brixton, 177 Ferndale Rd, London SW9 8BA, United Kingdom",51.4638953,-0.1167442,restaurant,5,0
ChIJo3PkpGgEdkgRkNnnihr3lJU,Three Eight Four,"384 Coldharbour Ln, London SW9 8LF, United Kingdom",51.461886,-0.1122389,restaurant,4.2,2
ChIJg4DC8PgDdkgRrrKRmRXuMpo,Coco di Mama - Italian to Go - More London,"7 More London Riverside, London SE1 2RT, United Kingdom",51.5043855,-0.0811399,restaurant,4.1,1
ChIJPcRFgFcDdkgRs6sKW4DqAjM,Honest Burgers Borough,"5-7 Southwark St, London SE1 1RQ, United Kingdom",51.5046209,-0.0910632,restaurant,4.5,2
ChIJbVZ6qVoDdkgR2V_vpfmXwvQ,itsu,"7 More London Riverside, London SE1 2BY, United Kingdom",51.5049734,-0.08158209999999999,restaurant,4.1,2
ChIJp_lOi1cDdkgRITpReOHm84Y,The Breakfast Club London Bridge,"11 Southwark St, London SE1 1RQ, United Kingdom",51.5046066,-0.09134629999999999,restaurant,4.3,2
ChIJq-3ryUQDdkgRSZrC9yowifE,Casse-Croûte,"109 Bermondsey St, London SE1 3XB, United Kingdom",51.500516,-0.0816534,restaurant,4.6,2
ChIJiXkYgKgEdkgRnxva5dinBcw,"Caravan Bankside | Outdoor Dining, Takeaway & Coffee","30 Great Guildford St, London SE1 0HS, United Kingdom",51.5045608,-0.0970248,restaurant,4.4,2
ChIJu3dr708DdkgRzC-GCwWdwM4,Pret A Manger,"7 More London Riverside, London SE1 2RT, United Kingdom",51.50493040000001,-0.0817427,restaurant,4.1,2
ChIJazMNe6cEdkgRvY7jBCwHKU4,The Restaurant Group,"5-7 Marshalsea Rd, London SE1 1EP, United Kingdom",51.50143,-0.0941522,restaurant,3.2,0
ChIJ-eAvAU8EdkgR95hTlE28U8w,Knife,"160 Clapham Park Rd, London SW4 7DE, United Kingdom",51.45956,-0.131556,restaurant,4.8,2
ChIJjdvld00EdkgRwpb9WDRfuTI,Carmen Tapas,"6 Clapham Common South Side, London SW4 7AA, United Kingdom",51.461667,-0.137801,restaurant,4.2,2
ChIJzT8ytv0FdkgR7XQ_KFdsJaM,On Cafe,"31 Clapham Park Rd, London SW4 7EE, United Kingdom",51.4611349,-0.1361177,restaurant,0,0
ChIJOV2b9EUFdkgR6k2PSp9Aelc,'The Terrace' Restaurant by Megan's,"10 Rookery Rd, London SW4 9DD, United Kingdom",51.4607868,-0.1432963,restaurant,4.6,2
ChIJ0RcczqoFdkgRZssBQl_4FpE,Dumplings & Baos,"31 Clapham Park Rd, London SW4 7EE, United Kingdom",51.4611455,-0.1361123,restaurant,4.8,0
ChIJb67ZF2QFdkgREKNQEWDeBsc,Fogo de Chão Brazilian Steakhouse,"7uh, 126 Clapham High St, London SW4 7UH, United Kingdom",51.46292990000001,-0.1353722,restaurant,4.3,0
ChIJbVvsgAEFdkgRsXjpn4Twm94,Leh Chalo!,"10 Clapham Common South Side, London SW4 7AA, United Kingdom",51.4614599,-0.1380136,restaurant,3.5,0
ChIJM4jpB1IEdkgRsldknr7m0gw,Olives and Meze,"131 Clapham High St, London SW4 7SS, United Kingdom",51.462467,-0.135585,restaurant,4.4,2
ChIJBYvxuFEEdkgRCUPh2EVZde0,Cafe Sol,"56 Clapham High St, London SW4 7UL, United Kingdom",51.4638942,-0.1328001,restaurant,4,2
ChIJ--jShlIEdkgR0A_9FSWHgIE,Barsito,"57 Venn St, London SW4 0BD, United Kingdom",51.4627741,-0.1380369,restaurant,4.2,2
ChIJRWNGE00EdkgRwyaONRrJ4A8,The Pepper Tree,"19 Clapham Common South Side, London SW4 7AB, United Kingdom",51.46099719999999,-0.1386583,restaurant,4,2
ChIJM3AGgFIEdkgRLP1Hr8NxugE,Honest Burgers Clapham,"75 Venn St, London SW4 0BD, United Kingdom",51.4624707,-0.1377346,restaurant,4.5,2
ChIJK5q5b_EEdkgRe7q_PIIV4ZE,Caminetto,"9a, Victoria House, London SW8 1QX, United Kingdom",51.4801002,-0.124008,restaurant,4.3,2
ChIJM-ytAvQEdkgREylG4KJIpxU,Stockwell Continental,"169 S Lambeth Rd, London SW8 1XW, United Kingdom",51.477503,-0.12312,restaurant,4.5,2
ChIJE1ESkUwFdkgRf3hvnkqAwcU,Five Guys,"2 Electric Ln, London SW9 8FA, United Kingdom",51.4626641,-0.1140489,restaurant,5,2
ChIJVcvKc80EdkgRyV3q0YIzDvc,The Ivy,"1-5 West St, London WC2H 9NQ, United Kingdom",51.5128535,-0.1280871,restaurant,4.5,3
ChIJ14K4vEwFdkgRwHRnJj1T8aU,Kolamba Sri Lankan Restaurant Soho,"21 Kingly St, Carnaby, London W1B 5QA, United Kingdom",51.5130238,-0.1395708,restaurant,4.5,0
ChIJ9RQEoMsEdkgR7j7ThuwfQ7A,Balthazar,"4-6 Russell St, London WC2B 5HZ, United Kingdom",51.5124104,-0.1212735,restaurant,4.3,3
ChIJewr3utwEdkgRw51-rUzWyVo,Cinnamon Club,"The Old Westminster Library, Great Smith St, London SW1P 3BU, United Kingdom",51.497425,-0.129625,restaurant,4.3,3
ChIJiwDyTtYEdkgR-n9I3koyBCQ,Quaglino's,"16 Bury St, St. James's, London SW1Y 6AJ, United Kingdom",51.5074754,-0.1389263,restaurant,4.3,3
ChIJH1goJCgFdkgRWFqbNlUCS84,Le Caprice,"20 Arlington St, St. James's, London SW1A 1RJ, United Kingdom",51.5065183,-0.1405892,restaurant,4.5,3
ChIJp7GN-l0EdkgR6p8L246kiuc,Sintra Cafe - Deli - Cafe - Restaurante,"146-148, Stockwell Rd, London SW9 9TQ, United Kingdom",51.4672766,-0.1179869,restaurant,4.2,2
ChIJ6ZyqrmgEdkgRhQ8CgkWK6iQ,Eat of Eden | Brixton,"Unit 4, Brixton Village, Coldharbour Ln, London SW9 8PR, United Kingdom",51.4620971,-0.1116982,restaurant,4.4,1
ChIJa8IKE_sFdkgRFv09nXV9AwI,Mezza Me,"432 Coldharbour Ln, London SW9 8LG, United Kingdom",51.4615988,-0.1143563,restaurant,4.6,0
ChIJI3lI-LAcdkgRHMbW_XzEwXU,BaBa G's Brixton,"Pop Brixton, London SW9 8PQ, United Kingdom",51.4635092,-0.112341,restaurant,4.3,0
ChIJLYFWsFADdkgRrLKn5tHOTYQ,Tito's,"273A Clapham Rd, London SW9 9BQ, United Kingdom",51.470792,-0.123745,restaurant,3.9,2
ChIJVTQyrlADdkgRjW4cUpqRq_Q,Pure,"8 London Bridge St, London SE1 9SG, United Kingdom",51.5049619,-0.08765060000000001,restaurant,4.1,2
ChIJfVfRHnEbdkgRZBeeR_pRwTg,Texas Joe's Slow Smoked Meats,"8-9 Snowsfields, London SE1 3SU, United Kingdom",51.5022331,-0.0838028,restaurant,4.5,2
ChIJsZvatGQDdkgR8-eqk7XdOsw,Sollip,"Unit 1, 8 Melior St, London SE1 3QP, United Kingdom",51.5026227,-0.0847903,restaurant,4.9,0
ChIJu6GgulADdkgRaP_LERUHmk8,Londinium,"8-18 London Bridge St, London SE1 9SG, United Kingdom",51.50521879999999,-0.088166,restaurant,3.5,0
ChIJ--NV5KcEdkgRhBQJ-YpaAX8,Lupins,"66 Union St, London SE1 1TD, United Kingdom",51.5041386,-0.095025,restaurant,4.5,2
ChIJ9eFJS0UDdkgRCBXBkYpfijM,Nine Lives,"8 Holyrood St, London SE1 2EL, United Kingdom",51.5034111,-0.0820472,restaurant,4.5,2
ChIJ0zCdplcDdkgRrc-ZT1oA8zw,Hawksmoor Borough,"16 Winchester Walk, London SE1 9AQ, United Kingdom",51.50638439999999,-0.0911931,restaurant,4.6,3
ChIJc3bTNCADdkgRksdDcmQDy2Y,BaoziInn - London Bridge,"34-36 Southwark St, London SE1 1TU, United Kingdom",51.5048347,-0.0930154,restaurant,3.8,0
ChIJxy6Lq2gEdkgRuC7Y6coNN58,Etta's Seafood Kitchen,"Granville Arcade, Unit 85-86 Coldharbour Ln, London SW9 8PR, United Kingdom",51.4623258,-0.111832,restaurant,4.4,0
ChIJkQmBIowEdkgRES9HuxjSmWw,48,"48 Brixton Rd, London SW9 6BT, United Kingdom",51.4793783,-0.1118718,restaurant,4.7,0
ChIJrch6eZ0FdkgRB4b7iTcVkNM,Bebs Kitchen,"126 Acre Ln, London SW2 5RJ, United Kingdom",51.4597294,-0.1242919,restaurant,4.9,0
ChIJXeZvkGgEdkgRDrySiz0OTrA,Three Little Birds,"412 Coldharbour Ln, London SW9 8LF, United Kingdom",51.4617267,-0.1134887,restaurant,4.3,2
ChIJLy3BMjsEdkgRWUi-dnS4RU4,Viet Fusion,"70 Streatham Hill, London SW2 4RD, United Kingdom",51.4414536,-0.1250929,restaurant,4.6,1
ChIJET2lGqQFdkgRVHNT0EpBUoc,Darby's,"3 Viaduct Gdns, Nine Elms, London SW11 7AY, United Kingdom",51.4820687,-0.1307928,restaurant,4.3,0
ChIJtamkVAMFdkgR4FrSlSH88yY,Wright Brothers Battersea,"26 Circus West Village Battersea Power Station, London SW11 8EZ, United Kingdom",51.4832735,-0.1462071,restaurant,4.3,3
ChIJiWc9_yAFdkgR6EITYqJcijE,Aster,"150 Victoria St, London SW1E 5LB, United Kingdom",51.4967249,-0.1430905,restaurant,4,2
ChIJoXHzltUEdkgRc7QLGWRren0,Sabor,"35-37 Heddon St, London W1B 4BR, United Kingdom",51.51130209999999,-0.1399688,restaurant,4.6,3
ChIJf2x6Nq0cdkgRyMCCDlobLxM,City Social,"Tower 42, 25 Old Broad St, London EC2N 1HQ, United Kingdom",51.5151146,-0.0840648,restaurant,4.5,4
ChIJRxPEvJYDdkgRVnUgx_Y7AQY,Souvlaki Street,"Unit 21, Pop Brixton, 49 Brixton Station Rd, London SW9 8PQ, United Kingdom",51.4635088,-0.1123713,restaurant,4.4,0
ChIJi72pg2gEdkgRiMxGiFklo1E,Healthy Eaters,"17 Electric Ave, London SW9 8JP, United Kingdom",51.462113,-0.1139636,restaurant,4.5,1
ChIJ5wkKpmcEdkgR-aRr5LPHIaE,Nando's Brixton,"234-244 Stockwell Rd, London SW9 9SP, United Kingdom",51.464759,-0.115127,restaurant,4,2
ChIJBYA0AmYEdkgR_sA5TJ873dg,Santafereño,"Brixton Village, Coldharbour Ln, London SW9 8PS, United Kingdom",51.4624931,-0.1118135,restaurant,4.2,1
ChIJ0XQDVW8EdkgRZngFBR2njZQ,The Joint,"Brixton Village, Unit 87 Coldharbour Ln, London SW9 8PR, United Kingdom",51.4623552,-0.1116852,restaurant,4.4,1
ChIJAYMKmmgEdkgRjk9Bg5JMRVQ,Kamome,"14C Market Row, London SW9 8LD, United Kingdom",51.461754,-0.113268,restaurant,4.2,1
ChIJIy3uY2gEdkgR_Sjnydxzv3c,Ritzy Cinema and Cafe,"26 Brixton Rd, Coldharbour Ln, London SW2 1JG, United Kingdom",51.46128110000001,-0.1149681,restaurant,4.4,0
ChIJ3VekwdMEdkgRTEiBkvNwTkI,Rainforest Cafe,"20-24 Shaftesbury Ave, London W1D 7EU, United Kingdom",51.5108294,-0.1335933,restaurant,3.6,3
ChIJ5ShNfUEbdkgRVTyAWFtKliE,Smoke & Salt,"115 Tooting High St, London SW17 0SY, United Kingdom",51.4259538,-0.1697293,restaurant,4.7,0
ChIJ5YHmdk0EdkgRERv3BigoPaU,South Side Cafe SW4,"7 Clapham Common South Side, London SW4 7AA, United Kingdom",51.4616214,-0.1378826,restaurant,4.5,0
ChIJqYefMbUFdkgR_VyNvUd2RG0,33 Abbeville Road,"33-35 Abbeville Rd, London SW4 9LA, United Kingdom",51.45402,-0.140486,restaurant,4.6,2
ChIJB6ZybCwFdkgRgjqYG06pwBE,C London Restaurant,"23-25 Davies St, London W1K 3DE, United Kingdom",51.5111111,-0.1477778,restaurant,4.3,4
ChIJh4TIgNECdkgRl_fJVbcErMM,The Narrow - Gordon Ramsay,"44 Narrow St, London E14 8DP, United Kingdom",51.5097165,-0.0378142,restaurant,4,2
ChIJRcNU-DgFdkgR7HboK6X8cmc,Buddha-Bar London,"145 Knightsbridge, London SW1X 7PA, United Kingdom",51.50154819999999,-0.1620723,restaurant,4,3
ChIJQX3ONGYEdkgRjRmYQ4Es5oc,Donburi & Co London,"1 Brixton Station Rd, London SW9 8PA, United Kingdom",51.4634934,-0.1142346,restaurant,4.2,0
ChIJT8PnzwgFdkgR_zOImao7jyk,Grazie Dio - Modern Italians,"Brixton Village, London SW9 8PS, United Kingdom",51.4624931,-0.1118135,restaurant,4.5,0
ChIJ-deQ2LUFdkgRnk-Tu1Z33DE,Metro Garden,"9, London SW4 7AA, United Kingdom",51.461544,-0.137939,restaurant,4.5,2
ChIJJ4kXYFAEdkgRnmQe62hNj7Q,Roti Joupa Clapham,"12 Clapham High St, London SW4 7UT, United Kingdom",51.4650008,-0.1304574,restaurant,4.5,1
ChIJp3n7HiUEdkgRIYFfwSYHDNM,Happy Garden,"128 Streatham Hill, London SW2 4RS, United Kingdom",51.4398826,-0.1261193,restaurant,4.4,2
ChIJF3NsK1UDdkgRuRoigDoWCI4,The Anthologist,"58 Gresham St, London EC2V 7BB, United Kingdom",51.5148773,-0.090823,restaurant,4,2
ChIJYaCsemYbdkgRjzlIMV5qa4c,Norma,"8 Charlotte St., London W1T 2LS, United Kingdom",51.5183236,-0.1343958,restaurant,4.4,0
ChIJ9RsBt1MDdkgRuzebvU6Jwc0,The Folly,"41 Gracechurch St, London EC3V 0BT, United Kingdom",51.511209,-0.0859158,restaurant,3.9,2
ChIJRRwPrH0FdkgRfxCSBjOtGGQ,Jak's,"533 King's Rd, London SW10 0TZ, United Kingdom",51.4802915,-0.1852694,restaurant,4.2,3
ChIJK7aYUOsFdkgRKgJYM07RLuw,Stanley's,"151 Sydney St, London SW3 6NT, United Kingdom",51.4877106,-0.1691617,restaurant,4.2,0
ChIJAc87YOUFdkgRMNPyR4LIO6k,La Nonna Pasta Fresca Brixton,"7 Market Row, London SW9 8LB, United Kingdom",51.4620251,-0.1133031,restaurant,4.7,0
ChIJeR3bu2cEdkgRoQtnmk3mKTk,Canova Hall,"250 Ferndale Rd, London SW9 8BQ, United Kingdom",51.463971,-0.1150284,restaurant,4,2
ChIJWUFrnFcDdkgRTdLG4stiEqY,The Market Porter,"9 Stoney St, London SE1 9AA, United Kingdom",51.5053727,-0.09132409999999999,restaurant,4.3,2
ChIJCRrzorcEdkgRmHmuNo5JzpA,Brasserie Blanc,"9 Belvedere Rd, London SE1 8YL, United Kingdom",51.5056765,-0.1149389,restaurant,4.3,2
ChIJrzgo5LcEdkgRx7Zpl9cYuy0,Honest Burgers Southbank,"9 Festival Terrace, London SE1 8XX, United Kingdom",51.5053124,-0.1168008,restaurant,4.4,2
ChIJbe4ErJgDdkgRRFNcc1WBF4g,Vinegar Yard,"72-82 St Thomas St, London SE1 3QX, United Kingdom",51.5028134,-0.083808,restaurant,4.2,2
ChIJ7e-AA6gEdkgROzBohARZUpE,Lantana London Bridge,"44-46 Southwark St, London SE1 1UN, United Kingdom",51.5049375,-0.09425689999999999,restaurant,4.4,2
ChIJ5cOjnVgDdkgR5AZPPBxb2rM,"The Trinity, Borough","202-206 Borough High St, London SE1 1JX, United Kingdom",51.5011047,-0.0937387,restaurant,4.1,2
ChIJpd62AKIEdkgRL7W8psIphWE,Mamuśka! Polish Kitchen and Bar,"9 Addington St, London SE1 7RY, United Kingdom",51.5011002,-0.1152356,restaurant,4.3,1
ChIJA5HjpvUEdkgR-yoqr7K3bIY,O Campino Restaurant,"1 Lansdowne Way, London SW8 1HL, United Kingdom",51.4745806,-0.1209307,restaurant,4.5,1
ChIJNzInwmwddkgR69RNuRHRkVU,Silo London,"The white building, 1st Floor,c/o CRATE Bar Unit 7, Queen's Yard, London E9 5EN, United Kingdom",51.54284180000001,-0.0220112,restaurant,4.6,0
ChIJeykNrLEFdkgRSfVHsXeLK-Q,Pret A Manger,"417 Brixton Rd, London SW9 8HE, United Kingdom",51.4630531,-0.1145677,restaurant,4,2
ChIJy_ehYcsEdkgRCMgFVW5YtUs,Inamo Covent Garden,"11-14 Hanover Pl, London WC2E 9JP, United Kingdom",51.5133859,-0.1231552,restaurant,4,2
ChIJDeDVUNMEdkgRCQEnhHzXv1g,Inamo,"134-136 Wardour St, London W1F 8ZP, United Kingdom",51.5144701,-0.1346457,restaurant,4.3,3
ChIJ1eXowdUEdkgRWGAaI2zHC30,Heddon Street Kitchen,"3-9 Heddon St, London W1B 4BE, United Kingdom",51.510728,-0.139304,restaurant,4.2,3
ChIJN51raG0EdkgROK3vBjuxJck,The Lido Cafe (Now 400 Rabbits),"the lido cafe, Dulwich Rd, London SE24 0PA, United Kingdom",51.4532779,-0.1060916,restaurant,3.5,2
ChIJW1nPJa8EdkgRIMjy_eiqwIM,Capricci,"Block C NEO Bankside, 72 Holland St, London SE1 9NX, United Kingdom",51.50656499999999,-0.100575,restaurant,4.5,2
ChIJG_1s4KcEdkgRz25CNiaeUkw,Bar Douro London Bridge,"35B, Arch, 85B Southwark Bridge Rd, London SE1 0NQ, United Kingdom",51.50440589999999,-0.0952726,restaurant,4.5,2
ChIJ7_gJKlsDdkgRO3DY0JtpSno,Tanner & Co,"50 Bermondsey St, London SE1 3UD, United Kingdom",51.501962,-0.08237699999999999,restaurant,3.7,2
ChIJ5wU-U50EdkgRfcR4Q7HDWWI,Bayroot,"8 Camberwell Rd, London SE5 0EN, United Kingdom",51.48424290000001,-0.0942353,restaurant,4.6,2
ChIJobyta38DdkgRIpSH5gbZlZg,Silk Road,"49 Camberwell Church St, London SE5 8TR, United Kingdom",51.4739189,-0.0892855,restaurant,4.5,1
ChIJJd_nKX4DdkgRdsLXS_Ey8As,Zeret Kitchen,"216-218 Camberwell Rd, London SE5 0ED, United Kingdom",51.4786911,-0.09468979999999999,restaurant,4.7,2
ChIJLbYycn8DdkgR8n-pQ1wrCsY,Falafel & Shawarma London,"27 Camberwell Church St, London SE5 8TR, United Kingdom",51.474036,-0.090309,restaurant,4.8,1
ChIJ-V-3dX8EdkgRjEGsqtdqOe8,The Sun of Camberwell,"61-63 Coldharbour Ln, London SE5 9NS, United Kingdom",51.4701523,-0.094956,restaurant,4.2,2
ChIJcVbGWn8DdkgRLXTiU3HYPLA,FM Mangal,"54 Camberwell Church St, London SE5 8QZ, United Kingdom",51.4736985,-0.0894677,restaurant,4.5,1
ChIJqajqXo8EdkgRpPyfj0irGPE,The Kennington,"60 Camberwell New Rd, Vassal, London SE5 0RS, United Kingdom",51.4799374,-0.1079178,restaurant,4.3,2
ChIJkfPUooYEdkgRFhOs77-JRl4,New Dewaniam,"225A Camberwell New Rd, London SE5 0TH, United Kingdom",51.4774828,-0.101028,restaurant,3.9,1
ChIJP99NRH8DdkgRyE8qbqpP-24,FLADDA Fish & Chips,"55 Camberwell Church St, London SE5 8TR, United Kingdom",51.4738131,-0.0888337,restaurant,4.3,2
ChIJ0_wXd38DdkgRFjlUhOXqLc4,Theo's,"2 Grove Ln, London SE5 8SY, United Kingdom",51.4736948,-0.0905856,restaurant,4.6,1
ChIJ5bn3zYIDdkgRajWdDPeW254,Nandine - Vestry Road,"82 Vestry Rd, London SE5 8PQ, United Kingdom",51.4710159,-0.0825354,restaurant,4.8,1
ChIJy51V34EDdkgRx-3gmvXdN8k,The Crooked Well,"16 Grove Ln, London SE5 8SY, United Kingdom",51.4729306,-0.0898607,restaurant,4.3,2
ChIJkTRewocEdkgRuYt_wRGxYwE,The Little Cat Cafe,"Myatt's Fields Park, Cormont Rd, London SE5 9RQ, United Kingdom",51.4742767,-0.1046541,restaurant,4.7,1
ChIJobyta38DdkgRjN-XDMmR3Mw,Wuli Wuli,"15 Camberwell Church St, London SE5 8TR, United Kingdom",51.4740653,-0.0909768,restaurant,3.8,0
ChIJbbntfIADdkgRobHwh4agbK8,Nando's Camberwell,"88 Denmark Hill, London SE5 8RX, United Kingdom",51.4717586,-0.09320160000000001,restaurant,4.1,2
ChIJBWXlqekDdkgReN6p-iBstpE,Francesco's,"53 Camberwell Church St, London SE5 8TR, United Kingdom",51.47383989999999,-0.0890585,restaurant,4.6,1
ChIJKSBn638DdkgRCWhD343a-pI,Noodles City,"21-22 Camberwell Green, London SE5 7AA, United Kingdom",51.4739438,-0.0924296,restaurant,3.9,1
ChIJJ0voQoEDdkgRxAxwOW2L1PY,Phoenix Windsor Walk Denmark H,"Windsor Walk, Denmark Hill, London SE5 8BB, United Kingdom",51.4681597,-0.0897579,restaurant,4,2
ChIJGajiNGYEdkgRkl3PxwLVGzg,Jeff The Chef,"1 Brixton Station Rd, London SW9 8PA, United Kingdom",51.4630287,-0.1130131,restaurant,4.5,2
ChIJF_wmescEdkgRQpySWeg3gXk,Locale Southbank,"County Hall, 3B Belvedere Rd, London SE1 7GP, United Kingdom",51.5016403,-0.1179686,restaurant,4.2,2
ChIJK2-BYHUEdkgR-9mx_hLoWNI,Ken’s Fish Bar,"131 Half Moon Ln, London SE24 9JY, United Kingdom",51.4533384,-0.0938851,restaurant,4.7,1
ChIJnZq81nUEdkgR1mFgcvKEV4g,Fish on the Hill,"71 Herne Hill, London SE24 9NE, United Kingdom",51.4568901,-0.0962565,restaurant,4.7,1
ChIJQUUoJXMEdkgROh1LkfRiDHA,Best Kebab,"143 Dulwich Rd, London SE24 0NG, United Kingdom",51.4525418,-0.1024515,restaurant,3.8,1
ChIJtUniX3UEdkgRE6dJFifiUgc,Gusto Italiano,"135 Half Moon Ln, London SE24 9JY, United Kingdom",51.4532856,-0.0937643,restaurant,4.6,0
ChIJ37qOl4oDdkgRLdQBOb3vssk,Dial A Curry HERNE HILL LONDON SE24 9JY,"147 Half Moon Ln, London SE24 9JY, United Kingdom",51.4534236,-0.0929783,restaurant,4.7,1
ChIJI7PSrkEEdkgRcYgRh8MuBMA,Adam's Ethiopian Restaurant,"86 Brixton Hill, London SW2 1QN, United Kingdom",51.454936,-0.1197684,restaurant,4.7,1
ChIJiSx9c2gEdkgRUYtBZluH-3M,Refill Eaterie,"500A Brixton Rd, London SW9 8EQ, United Kingdom",51.46196639999999,-0.1157426,restaurant,3.9,1
ChIJwR7q2KYFdkgR4BWzg7EgY2Q,Sarap BAon - Filipino Kitchen,"14D Market Row, London SW9 8LD, United Kingdom",51.461835,-0.1134611,restaurant,4.7,0
ChIJDfH3oGgEdkgR0o8mlNS9j4E,Rosa's Thai Cafe Brixton,"36 Atlantic Rd, London SW9 7DG, United Kingdom",51.4622666,-0.1126606,restaurant,3.8,2
ChIJAYMKmmgEdkgRVhpvy7GCxsg,Happy Dumplings,"London SW9 8LD, United Kingdom",51.4618334,-0.11319,restaurant,4.2,0
ChIJF5PWtGgEdkgRLKAp3crBy4M,Ichiban Sushi Brixton,"58A Atlantic Rd, London SW9 8PY, United Kingdom",51.4613039,-0.1114488,restaurant,4.5,2
ChIJ2deO3jsEdkgRXrENACPYeCo,Asafo Ghanaian Restaurant,"60 Morrish Rd, Brixton Hill, London SW2 4EG, United Kingdom",51.44636819999999,-0.1247197,restaurant,4.1,2
ChIJw38uE8oEdkgR9hD3azVChzM,Spring,"Lancaster Pl, London WC2R 1LA, United Kingdom",51.510983,-0.1183386,restaurant,4.6,3
ChIJeRpA9i0FdkgRu78BpNd0i98,34 Mayfair,"34 Grosvenor Square, S Audley St, London W1K 2HD, United Kingdom",51.5102469,-0.1523196,restaurant,4.4,4
ChIJbUnC58oEdkgR4pwzPtYGrbY,Rules,"34-35 Maiden Ln, London WC2E 7LB, United Kingdom",51.5107984,-0.1231629,restaurant,4.5,4
ChIJHbMkxMsEdkgR_kMYC-OnZfE,STK Steakhouse London - Strand,"336-337 Strand, London WC2R 1HA, United Kingdom",51.51175550000001,-0.1185847,restaurant,3.9,4
ChIJKZfgUMoEdkgRjRIYygsCkSY,Christopher's,"18 Wellington St, London WC2E 7DD, United Kingdom",51.5119383,-0.1198318,restaurant,4.3,3
ChIJn1DE_XsFdkgR6NyYk4IWd64,HIDE,"85 Piccadilly, London W1J 7NB, United Kingdom",51.5061931,-0.1444369,restaurant,4.5,4
ChIJj8f1WcoEdkgRXxGjyNHSQ4g,The Enterprise,"35 Walton St, London SW3 2HU, United Kingdom",51.49525389999999,-0.166064,restaurant,4.4,2
ChIJ-8s-jyUFdkgRj14ZQJqdYBI,Hard Rock Cafe,"150 Old Park Ln, London W1K 1QZ, United Kingdom",51.503868,-0.1490734,restaurant,4.4,3
ChIJyVvsH-AEdkgRGcXLKqKrmJA,Kazan,"93-94 Wilton Rd, Lillington and Longmoore Gardens, London SW1V 1DW, United Kingdom",51.4926778,-0.1405889,restaurant,4.4,2
ChIJa4btjyoFdkgRJAOdAdsAdbA,sketch,"9 Conduit St, London W1S 2XG, United Kingdom",51.512693,-0.141529,restaurant,4.3,4
ChIJ-5WkAyAFdkgRIrEdoX2CpXU,TOZI,"8 Gillingham St, Pimlico, London SW1V 1HJ, United Kingdom",51.4941056,-0.1413665,restaurant,4.5,3
ChIJgaI8bFIDdkgRhJJqLMxsFdU,Sky Garden,"1 SKY GARDEN WALK, London EC3M 8AF, United Kingdom",51.5112422,-0.08354929999999999,restaurant,4.7,0
ChIJMRbLJGwFdkgRMmT-JJdU-f0,Megan's Kings Road Restaurant (Chelsea),"571 King's Rd, London SW6 2EB, United Kingdom",51.47887050000001,-0.1880011,restaurant,4.3,2
ChIJAQCcMa8FdkgRQwcksEmUhD8,Pizza Hot 4 U,"24 Queenstown Rd, London SW8 3RX, United Kingdom",51.4672306,-0.1504297,restaurant,3.8,0
ChIJmxJQmf0EdkgRJCFCY_eUUjI,Power Station,"161 Battersea Park Rd, Nine Elms, London SW8 4BU, United Kingdom",51.4770244,-0.1464988,restaurant,4.3,2
ChIJ2QA57rsFdkgRienmPmp-y5Y,272,"272 Brixton Rd, Vassal, London SW9 6AQ, United Kingdom",51.470806,-0.11281,restaurant,4.7,0
ChIJx2lxL0UBdkgR8gSz90WhO-8,The Exhibition Rooms,"69 Westow Hill, Norwood, London SE19 1TX, United Kingdom",51.4198673,-0.0794917,restaurant,3.4,2
ChIJHQKETQEBdkgRu8kpWQgPA7c,Bloom café crystalpalace,"70 Westow Hill, London SE19 1SB, United Kingdom",51.41960630000001,-0.07969509999999999,restaurant,4.3,0
ChIJLXX1r3YBdkgRI9D5Thy_1RA,Timur,"17 Westow St, London SE19 3RY, United Kingdom",51.4189453,-0.0825798,restaurant,4.7,0
ChIJhXigkGgEdkgR0fIdmOFh2r8,Seven at Brixton,"UNIT 7 MARKET ROW, London SW9 8LB, United Kingdom",51.4619837,-0.1136823,restaurant,4,2
ChIJkaRR9X8EdkgRdEvfk7lZ8_Q,Brunchies,"1 Valmar Rd, London SE5 9NG, United Kingdom",51.4716752,-0.09387229999999999,restaurant,4.5,1
ChIJhVtdE4ADdkgRvsHwGi3FzlU,Viet Cafe,"75 Denmark Hill, London SE5 8RS, United Kingdom",51.4710451,-0.09277579999999999,restaurant,4.4,1
ChIJs8CfdX8DdkgRoooNj_cJDGo,"Good Neighbour, Camberwell","21 Camberwell Church St, London SE5 8TR, United Kingdom",51.4741008,-0.09072899999999999,restaurant,4.5,0
ChIJVwCHTn8DdkgR3LcDgzX3SF4,Maloko,"60 Camberwell Church St, London SE5 8TU, United Kingdom",51.4735755,-0.0887395,restaurant,4.5,1
ChIJ96CfJigDdkgRUTS3eKg1NTA,Latin House,"4 Coldharbour Ln, London SE5 9PR, United Kingdom",51.4720808,-0.0935241,restaurant,4.7,2
ChIJyzAtk38DdkgRzUvLV7YFwEg,The Tiger,"18 Camberwell Green, London SE5 7AA, United Kingdom",51.4738272,-0.0926611,restaurant,4.1,2
ChIJG81UvhgDdkgR1hm1J2ERvxY,Crane's Kitchen,"65, 67 Peckham Rd, London SE5 8UH, United Kingdom",51.4742456,-0.07964299999999999,restaurant,4.4,0
ChIJxeQyq22q2EcRkpIg2GN42Yg,The Black Cab Coffee Co,"1 RiverLight Quay, Nine Elms, London SW11 8AU, United Kingdom",51.4824742,-0.1363204,restaurant,4.4,2
ChIJweZaRY4FdkgRK4MnRyEmm7A,The Alchemist Embassy Gardens,"1 Ponton Rd, Nine Elms, London SW11 7BD, United Kingdom",51.481856,-0.1313772,restaurant,4.5,3
ChIJE9ol8ysbdkgR-PpAYMncFHU,1947 London,"Entrance opposite to Rathbone Hotel on 33, Rathbone St, Charlotte St., London W1T 1RR, United Kingdom",51.518833,-0.1356459,restaurant,4.2,0
ChIJr0I4YsccdkgRxIajTnwBuUs,Brawn,"49 Columbia Rd, London E2 7RG, United Kingdom",51.528968,-0.070239,restaurant,4.7,2
ChIJ88xdgIup2EcRifHxZ1hq_vo,London in the Sky,"Peninsula Square, London SE10 0DX, United Kingdom",51.5010073,0.0041985,restaurant,4.5,0
ChIJf6wFkrcCdkgR65zVMAn8y-c,Boisdale of Canary Wharf,"Cabot Square, London E14 4QT, United Kingdom",51.5051079,-0.022011,restaurant,4.1,3
ChIJdXacwdEadkgR-FWbcyqk_xU,Fischer's,"50 Marylebone High St, London W1U 5HN, United Kingdom",51.5216222,-0.1516157,restaurant,4.4,2
ChIJ5b1BUVYDdkgRoBMQhiya958,Tower Bridge Kitchen,"224A Tower Bridge Rd, London SE1 2UP, United Kingdom",51.5034506,-0.07647849999999999,restaurant,4.2,0
ChIJzfSB9a8EdkgRX_77drWfS94,Nando's Southwark Arches,"202 Blackfriars Rd, London SE1 0XH, United Kingdom",51.5040876,-0.1035062,restaurant,4.3,2
ChIJEcLP7kUDdkgRw2pqyXOSXzw,The Ivy Tower Bridge,"One Tower Bridge, Tower Bridge Rd, London SE1 2AA, United Kingdom",51.5041392,-0.0770409,restaurant,4.3,2
ChIJhZkSsNQDdkgRwGJZ7Z2rMjg,Trivet,"36 Snowsfields, London SE1 3SU, United Kingdom",51.5023096,-0.0845977,restaurant,4.7,0
ChIJ_UpKO1IDdkgRN4Fb9ePV-zY,Tavolino Bar & Kitchen,"2 More London Riverside, London SE1 2DB, United Kingdom",51.5052275,-0.0803724,restaurant,4.4,2
ChIJRz2mTVcDdkgRUd49u7Np6DY,Quarter Bar & Lounge,"8-18 London Bridge St, London SE1 9SG, United Kingdom",51.50527839999999,-0.0882046,restaurant,4.3,0
ChIJY94y6kUDdkgRR9yFLhSFAP8,Tom Simmons - Tower Bridge,"2 Still Walk, London SE1 2RF, United Kingdom",51.5037236,-0.0772814,restaurant,4.7,3
ChIJh9MNaLkDdkgRDgvKgkf7EFU,Flat Iron London Bridge,"112-116 Tooley St, London SE1 2TH, United Kingdom",51.5041764,-0.0823126,restaurant,4.7,2
ChIJe_C0JywDdkgR_lF2oTrUrnc,Cafe Murano Bermondsey,"184 Bermondsey St, London SE1 3TQ, United Kingdom",51.4987489,-0.08117479999999999,restaurant,4.3,2
ChIJ60eQq2gEdkgRKcNZSSupHcw,"Fish, Wings and Tings","Brixton Village, 3, Granville Arcade, Coldharbour Ln, London SW9 8PR, United Kingdom",51.4621204,-0.1115886,restaurant,4.3,0
ChIJKZ34DdYadkgRc77GSMZZBmc,Clipstone,"5 Clipstone St, London W1W 6BB, United Kingdom",51.5208384,-0.1421528,restaurant,4.6,3
ChIJcYnlfyoFdkgRONDVNY-kV4M,Ristorante Frescobaldi London,"15 New Burlington Pl, London W1S 2HX, United Kingdom",51.5123785,-0.1410388,restaurant,4.3,3
ChIJl-cjD9QEdkgRVkkQt3pySRI,Brasserie Zédel,"20 Sherwood St, London W1F 7ED, United Kingdom",51.5105776,-0.1355547,restaurant,4.5,2
ChIJH5yvxS8FdkgR6qy69Tshfm0,CUT at 45 Park Lane,"45 Park Ln, London W1K 1PN, United Kingdom",51.50639349999999,-0.1515456,restaurant,4.5,4
ChIJO5fsbSsFdkgRkVm-GUYm3AY,Hush Mayfair,"8 Lancashire Ct, London W1S 1EY, United Kingdom",51.5127883,-0.1459916,restaurant,4.2,3
ChIJSblyaE8bdkgRI36jwz2mSas,The Quality Chop House,"88-94 Farringdon Rd, London EC1R 3EA, United Kingdom",51.5246849,-0.1098886,restaurant,4.5,3
ChIJTRpX1DQFdkgR7HKaZl_kRWw,Lurra,"9 Seymour Pl, London W1H 5BA, United Kingdom",51.5147219,-0.1612466,restaurant,4.3,3
ChIJV6PjwNQEdkgR96sDViHjsNQ,Social Eating House,"58 Poland St, London W1F 7NR, United Kingdom",51.513833,-0.136716,restaurant,4.3,2
ChIJBUYZSiUbdkgR825SXtBpB_c,Number Twelve,"12 Upper Woburn Pl, London WC1H 0HX, United Kingdom",51.5265579,-0.129671,restaurant,3.9,2
ChIJ_5hCrlADdkgRGXR__rO1_yU,Pollen Street Social,"8-10 Pollen St, London W1S 1NQ, United Kingdom",51.5133379,-0.1423262,restaurant,4.6,4
ChIJBTEZdyobdkgRA0nUTxi8Wes,Riding House Café,"43-51 Great Titchfield St., London W1W 7PQ, United Kingdom",51.5182998,-0.1406816,restaurant,4.2,2
ChIJn6H4-9UEdkgRdpJ9OOHx_GY,Cecconi's Mayfair,"5A Burlington Gardens, London W1S 3EP, United Kingdom",51.5100482,-0.1405581,restaurant,4.4,4
ChIJBQN9eeAEdkgR2H3UXjw7xhA,Gustoso Ristorante Enoteca,"35 Willow Pl, London SW1P 1JH, United Kingdom",51.49370829999999,-0.1386694,restaurant,4.4,2
ChIJDXIH9tUadkgRbcbeSNbo-kQ,Bellaria Restaurant & Wine Bar,"71 Great Titchfield St., London W1W 6RB, United Kingdom",51.51923379999999,-0.141042,restaurant,4.2,2
ChIJTwI_nqoFdkgR6tS9kkk8P_M,Bellefields,"9 Stockwell Ave, London SW9 9SY, United Kingdom",51.4643308,-0.1153417,restaurant,4.3,0
ChIJ95NYfksDdkgRDIxdGhaoIOA,The Rajasthan II @ India Street,"8 India St, London EC3N 2HS, United Kingdom",51.51256859999999,-0.0759526,restaurant,4,2
ChIJtf8MRnMEdkgRGNEn6UQS7D4,"The Half Moon, Herne Hill","10 Half Moon Ln, London SE24 9HU, United Kingdom",51.4526499,-0.1007223,restaurant,4.2,0
ChIJWdrmlUwFdkgRx3E52cxsack,Noorjahan II,"26 Sussex Pl, Tyburnia, London W2 2TH, United Kingdom",51.5134622,-0.1715291,restaurant,4.1,2
ChIJgSJZsrAcdkgRDBKu1-IgdkE,Boundary London,"2-4 Boundary St, London E2 7DD, United Kingdom",51.5244249,-0.0762439,restaurant,3.9,0
ChIJd6eAqGMFdkgRVY9AOpAFhHI,Brinkley's,"Little Chelsea, 47 Hollywood Rd, London SW10 9HX, United Kingdom",51.48614389999999,-0.1841432,restaurant,4.3,3
ChIJhT-9smcEdkgR3gntPRWIhTs,Turtle Bay,"382-384, Brixton Rd, London SW9 7AW, United Kingdom",51.46564499999999,-0.113935,restaurant,3.8,2
ChIJIZuk42UEdkgRkN4Ja553APo,Creams Cafe Brixton,"392-394 Brixton Rd, London SW9 7AW, United Kingdom",51.4654894,-0.1140528,restaurant,3.6,2
ChIJ52yLFGgEdkgRkXR4oYhPboM,McDonald's Brixton,"518-522 Brixton Rd, London SW9 8EN, United Kingdom",51.4612785,-0.1160489,restaurant,3.1,1
ChIJcc3X0fQEdkgRyiiDWLoaAPY,Coffee Studio 7Gr. Clapham / Sevengrams UK,"139 Clapham Rd, Vassal, London SW9 0HP, United Kingdom",51.4764206,-0.1176954,restaurant,4.5,2
ChIJfSspkWgEdkgREaK3xb_hluA,KFC London,"467 Brixton Rd, London SW9 8HH, United Kingdom",51.4615512,-0.1150275,restaurant,3,1
ChIJx7IeOFQFdkgRThH6kOReJqE,Shisha Vauxhall Waterfront,"3 St George Wharf, London SW8 2LE, United Kingdom",51.4862474,-0.1261572,restaurant,4.3,0
ChIJ2SDaAe8EdkgRvL0vQkwkM_0,Smoke Lab,"3 St George Wharf, London SW8 2LE, United Kingdom",51.4862474,-0.1261572,restaurant,3.9,0
ChIJgyZPwd0FdkgR-96s4Om1uEA,OSTERIA MBARE,"167 Clapham High St, London SW4 7SS, United Kingdom",51.4620861,-0.137137,restaurant,4.7,0
ChIJt2EWWWQFdkgRNCbSCr4SdSY,Haché Burgers Chelsea,"329-331 Fulham Rd., London SW10 9QL, United Kingdom",51.48623,-0.180191,restaurant,4.3,2
ChIJx06B-lEEdkgRK3xOidYORTk,Revolution,"95-97 Clapham High St, London SW4 7TB, United Kingdom",51.46295689999999,-0.1343044,restaurant,3.7,2
ChIJBbrwgk0EdkgRwcTBlRfokPw,The Belle Vue,"1 Clapham Common South Side, London SW4 7AA, United Kingdom",51.4618401,-0.1375883,restaurant,4.2,2
ChIJJ5NZYAcFdkgRUjXqc2l4VOI,The Victoria,"166 Queenstown Rd, London SW8 3QH, United Kingdom",51.4729815,-0.1481729,restaurant,4.4,2
ChIJZVJOlfkEdkgR-WPXaVtz5b0,Domino's Pizza - London - Lambeth,"180a Wandsworth Rd, London SW8 2LA, United Kingdom",51.476648,-0.1305369,restaurant,2.6,2
ChIJuxZQaUAFdkgRIwfO73Qu7Dk,Greenspeares,"23 Walton St, London SW3 2HX, United Kingdom",51.4955483,-0.165531,restaurant,4.5,2
ChIJn0DHD2wFdkgR78CIVVUmhZo,Market Place Restaurant,"125 Sydney St, London SW3 6NR, United Kingdom",51.4881085,-0.169449,restaurant,3.7,1
ChIJUxk7qWkFdkgRnIlqyamHI9g,PJ's Chelsea Brasserie,"52 Fulham Rd., South Kensington, London SW3 6HH, United Kingdom",51.49160939999999,-0.1723204,restaurant,4.2,2
ChIJYUF8p2gFdkgRz4_DuYVCGjU,Riccardo's Italian Restaurant Chelsea,"126 Fulham Rd., South Kensington, London SW3 6HU, United Kingdom",51.4890201,-0.1762646,restaurant,4.2,2
ChIJ5R-v5GYFdkgRlctl3dgGQ-0,Freej Swaeleh London,"86 Brompton Rd, London SW3 1ER, United Kingdom",51.4997363,-0.1638196,restaurant,4.1,0
ChIJMeKIoWkFdkgRXEEVfDoXhsw,Zheng,"4 Sydney St, London SW3 6PP, United Kingdom",51.4915469,-0.171841,restaurant,4.3,3
ChIJ3b-ufD8FdkgRdJeO5Q3al0M,Chisou Japanese Restaurant Knightsbridge,"31 Beauchamp Pl, London SW3 1NU, United Kingdom",51.4971411,-0.1640364,restaurant,4.4,3
ChIJoxmQsmYFdkgR_vzdp3_RnIM,Kahani Restaurant Sloane Square,"1 Wilbraham Pl, London SW1X 9AE, United Kingdom",51.4941256,-0.1574947,restaurant,4.4,0
ChIJJUrlR68FdkgRn8evKWvPaMU,bombay brasserie,"11 Cadogan Gardens, London SW3 2RJ, United Kingdom",51.4935726,-0.1592237,restaurant,4,0
ChIJBZKlCgcFdkgRcl8vWVM88ZQ,Hot May Pot Pot 好味锅锅,"30 Beauchamp Pl, London SW3 1NJ, United Kingdom",51.4972994,-0.1639247,restaurant,4.6,0
ChIJn3t5V_EEdkgR-DqPGalUheY,Chicago Pizza,"129 S Lambeth Rd, London SW8 1XB, United Kingdom",51.4787696,-0.1232937,restaurant,2.8,0
ChIJNx7vk0IEdkgRc7UEHYoIzsU,Barrio Brixton,"30 Acre Ln, London SW2 5SG, United Kingdom",51.4607603,-0.1184218,restaurant,4.5,2
ChIJrwAbVWYEdkgR4W5UQ0-TEm8,Brixton Pizza Restaurant,"408 Brixton Rd, London SW9 7AW, United Kingdom",51.4650841,-0.1144184,restaurant,3.7,0
ChIJy9bkQdMEdkgR9aVJH-2mQw0,100 Wardour Street,"100 Wardour St, London W1F 0TN, United Kingdom",51.5135275,-0.1338934,restaurant,4.1,3
ChIJU07oP6wcdkgRxecDS1lBdlc,Angler,"South Place Hotel, 3 South Pl, London EC2M 2AF, United Kingdom",51.5190865,-0.0864165,restaurant,4.6,4
ChIJs5vKe-4EdkgRD8HNoYHiATQ,Starbucks Coffee,"2 S Lambeth Rd, London SW8 1SP, United Kingdom",51.48570669999999,-0.1235912,restaurant,3.8,2
ChIJA_uszRUFdkgRo53-Wi_kU6I,Polpo Chelsea,"81 Duke of York Square, London SW3 4LY, United Kingdom",51.4912281,-0.158868,restaurant,3.9,2
ChIJY0Ocl0AFdkgRJnBnv0HCe-U,Saraya Cafe,"51 Beauchamp Pl, London SW3 1NY, United Kingdom",51.4976964,-0.1652535,restaurant,4,0
ChIJB-35vkAFdkgRf3U6U-7Q68Y,Privée by Layalina,"2 Beauchamp Pl, London SW3 1NG, United Kingdom",51.4980775,-0.165551,restaurant,4.4,0
ChIJEYfH57cEdkgR-_nTJFs0hRc,Giraffe,"Level 1, Behind the Royal Festival Hall Riverside, London SE1 8XX, United Kingdom",51.50583229999999,-0.116842,restaurant,4,2
ChIJI109CbEEdkgRm6b4oMoOvfE,"OXO Tower Restaurant, Bar and Brasserie","Barge House St, London SE1 9PH, United Kingdom",51.5083565,-0.1086628,restaurant,4.4,4
ChIJmSLaB5AGdkgR43AI-7XFSa4,Nando's Streatham,"6-7, The High Parade, Streatham High Rd, London SW16 1EX, United Kingdom",51.4349745,-0.1278506,restaurant,4.1,2
ChIJd6byaYMGdkgRlv6Um8vq45o,Hideaway,"2 Empire Mews, Stanthorpe Rd, London SW16 2BF, United Kingdom",51.4269031,-0.1304424,restaurant,4.6,0
ChIJhw_huzsEdkgR4imPN2iGaH0,Crown & Sceptre,"2a Streatham Hill, London SW2 4AH, United Kingdom",51.4450663,-0.124835,restaurant,4,1
ChIJhTSJdygEdkgR7C9suzHgxVs,Wimpy,"160 Streatham High Rd, London SW16 1BJ, United Kingdom",51.4328329,-0.1290156,restaurant,4.3,2
ChIJOUBaqIIGdkgRu7hH5FslFR4,Subway,"95 Streatham High Rd, London SW16 1PG, United Kingdom",51.4306271,-0.1293678,restaurant,3.6,1
ChIJp_EiBCUEdkgRJkVJ38I9dj8,KFC London,"116 Streatham High Rd, London SW16 1BW, United Kingdom",51.4341571,-0.1286314,restaurant,3.2,1
ChIJ_adcXdEEdkgRAoK_Jb9LsvI,Aquavit London,"1 St James's Market, Carlton St, St. James's, London SW1Y 4QQ, United Kingdom",51.50889429999999,-0.1332587,restaurant,4.4,3
ChIJx-Q-bg8FdkgR_t3n42HGBcg,14 Hills,"14th floor, 120 Fenchurch St, London EC3M 5BA, United Kingdom",51.51199339999999,-0.0810909,restaurant,4.3,0
ChIJ_XD7HMkEdkgRr8HNeQV9Yug,Bateaux London,"Embankment Pier, Victoria Embankment, London WC2N 6NU, United Kingdom",51.5072456,-0.1211885,restaurant,4.1,3
ChIJP4ifK9QEdkgRNmLyAs3GJfY,Gaucho Piccadilly,"25 Swallow St, London W1B 4QR, United Kingdom",51.50976050000001,-0.1379207,restaurant,4.3,3
ChIJVVV5_rcCdkgREKg9Kc-8epE,PIAGGIO MOBILE BAR,"25 Cabot Square, Mackenzie Walk, London E14 4Q, United Kingdom",51.5048013,-0.0232969,restaurant,0,0
ChIJxxa_ELAPdkgRF2wx7RLroiY,The River Café,"Thames Wharf, Rainville Rd, London W6 9HA, United Kingdom",51.48399879999999,-0.2242253,restaurant,4.4,4
ChIJr8npDSsbdkgRzUlBouidjTs,Côte Restaurant - Head Office,"House 61, Woolverstone, 62 Berners St, London W1T 3NJ, United Kingdom",51.516936,-0.1369159,restaurant,2.5,0
ChIJI7XXmS8FdkgRzcAHNqN3e0c,London Hilton on Park Lane,"22 Park Ln, London W1K 1BE, United Kingdom",51.5055096,-0.1503864,restaurant,4.4,0
ChIJ3R83RbUddkgRPcLrcZ4kJdw,Wendy's,"52 Broadway, London E15 1XE, United Kingdom",51.5412836,0.0015922,restaurant,3.1,0
ChIJvf4XJxUFdkgRoH-8SJeEZLM,FishbowlBrixton,"5 Atlantic Rd, London SW9 8HX, United Kingdom",51.46327489999999,-0.1145435,restaurant,4.4,0
ChIJDzMXckYFdkgR4A6059Ii8xQ,IT London,"28-29 Dover St, London W1S 4LX, United Kingdom",51.5093979,-0.1427994,restaurant,4.1,0
ChIJDbAEGeAEdkgRljS1ZwkdGmg,Lorne,"76 Wilton Rd, Pimlico, London SW1V 1DE, United Kingdom",51.4927754,-0.1403468,restaurant,4.7,0
ChIJk5MoqnMFdkgRz9bppEzCsnA,Brixtons Friends of Mine,"382 Coldharbour Ln, London SW9 8LF, United Kingdom",51.4618932,-0.1121881,restaurant,4.1,0
ChIJd2dXxlEEdkgREP3bxuLAR88,Nando's Clapham - High Street,"59-63 Clapham High St, London SW4 7TG, United Kingdom",51.4634952,-0.1329647,restaurant,4,2
ChIJJUX3384EdkgRmEqO3_ZaXFI,Garfunkel's,"3 Northumberland Ave, London WC2N 5BW, United Kingdom",51.507251,-0.1271565,restaurant,4.1,2
ChIJQ-HH4SQEdkgRkarrDZr4vKI,Roosters Piri Piri Streatham,"118 Streatham Hill, London SW2 4TX, United Kingdom",51.4401789,-0.1260474,restaurant,4,1
ChIJZf2Jlc4EdkgRv83xDpKQfHA,Prezzo Italian Restaurant London Northumberland Avenue,"Grand Buildings, 31-32 Northumberland Ave, London WC2N 5BW, United Kingdom",51.5075714,-0.1267719,restaurant,4,2
ChIJw9b3180EdkgRjrehNp_N1DM,Prezzo Italian Restaurant London St Martins Lane,"116 St Martin's Ln, London WC2N 4BD, United Kingdom",51.5096332,-0.127044,restaurant,4.1,2
ChIJiyrb1jIbdkgRf7ZSctASsX4,Franx,"192 Shaftesbury Ave, London WC2H 8JL, United Kingdom",51.51524209999999,-0.1266549,restaurant,4.5,1
ChIJWWBqLMsadkgRMNgQny8l1vg,The Gate Marylebone,"22-24 Seymour Pl, London W1H 7NL, United Kingdom",51.5151088,-0.1611573,restaurant,4.3,2
ChIJ3RW2oqkEdkgRBak7tYlGoBc,Pizza Express,"4 Borough High St, London SE1 9QQ, United Kingdom",51.506428,-0.0888293,restaurant,4,2
ChIJCyGjxMsEdkgR56s8-gFqDnU,Simpson's in the Strand,"100 Strand, London WC2R 0EW, United Kingdom",51.510551,-0.120565,restaurant,4.6,3
ChIJVX9Y2ikbdkgRgran6KodNLA,Passyunk Avenue,"80 Cleveland St, London W1T 6NE, United Kingdom",51.5220492,-0.1404279,restaurant,4.6,2
ChIJ0zyKqlUDdkgR2i-3G9FCBOk,Bleecker Bloomberg,"16 Bloomberg Arcade, London EC4N 8AR, United Kingdom",51.51214599999999,-0.0912533,restaurant,4.3,2
ChIJ7cwpZeIadkgRG8Np6iPAzwI,Guanabana Restaurant,"85 Kentish Town Rd, London NW1 8NY, United Kingdom",51.5433457,-0.1420047,restaurant,4.2,2
ChIJ7XtbuNMFdkgRzUW6ZpXyIWk,Get The Greek,"food and Beer Garden, 6A S Lambeth Pl, London SW8 1SP, United Kingdom",51.48472,-0.1240099,restaurant,4,0
ChIJhW82WmsFdkgRW5FCG7D3Hos,Pizza Express,"The Pheasantry, 152/154 King's Rd, London SW3 4UT, United Kingdom",51.4890872,-0.1653811,restaurant,4.3,2
ChIJCQA6734EdkgRmiV-EgLZM60,Johnnies,"104, 106 Coldharbour Ln, London SE5 9PZ, United Kingdom",51.4694444,-0.09749999999999999,restaurant,4.6,1
ChIJ0ck5_oEDdkgRW1u4-8Igh8s,Vineyard,"3-5 Camberwell Grove, London SE5 8JA, United Kingdom",51.4734867,-0.08879719999999999,restaurant,4.3,2
ChIJNTCaOLoEdkgRyeH2tkt6WL4,Wahaca Waterloo,"Bishops, 119 Waterloo Rd, London SE1 8UL, United Kingdom",51.5027358,-0.1100846,restaurant,4.2,2
ChIJ3YrSvlADdkgR-kRSiQrQYis,Pret a Manger,"8 London Bridge St, London SE1 9SG, United Kingdom",51.5054781,-0.08880919999999999,restaurant,3.8,2
ChIJ96VhOlcDdkgR0PXV0CoKaNY,"The Barrowboy & Banker, SE1","6-8 Borough High St, London SE1 9QQ, United Kingdom",51.50622,-0.088665,restaurant,4.1,2
ChIJIcW6ek0EdkgRVDpPTHElR0M,Joe Public,"4 The Pavement, London SW4 0HY, United Kingdom",51.4617874,-0.1384629,restaurant,4.1,2
ChIJiTl9thUFdkgRWe4-s_9IR3Q,Caffé Concerto - King’s Road,"52 King's Rd, London SW3 4UD, United Kingdom",51.4916165,-0.160042,restaurant,4,2
ChIJtZYpmL4EdkgRBm6YlNd2Ds4,Riverside 2,"18-20 Kennington Rd, London SE1 7BL, United Kingdom",51.49766899999999,-0.112304,restaurant,4.3,2
ChIJ91DnDVkEdkgRWKCf40NtvTo,Falcon Clapham North SW4,"33 Bedford Rd, London SW4 7SQ, United Kingdom",51.4643194,-0.1290139,restaurant,4.1,2
ChIJq8lnAjgDdkgR_kbSB3hWIVE,WINGZ restaurant,"59 Denmark Hill, London SE5 8RS, United Kingdom",51.4715241,-0.0928353,restaurant,4.5,0
ChIJ8x9VuoYEdkgRCSYKcBmVxBg,Camberwell Daily London,"243 Camberwell New Rd, London SE5 0TH, United Kingdom",51.4773146,-0.1006397,restaurant,3.7,0
ChIJs-bS7nUFdkgRuJ-WDSiaJjM,More Flour to the People!,"16A Coldharbour Ln, London SE5 9PR, United Kingdom",51.4713741,-0.0939298,restaurant,4.7,0
ChIJwbqbEoADdkgRXX6zOf4djKY,Reem,"55 Denmark Hill, London SE5 8RS, United Kingdom",51.4717401,-0.09282739999999999,restaurant,4.2,0
ChIJcVbGWn8DdkgRWC1E0OOTmCE,Van Hing,"42 Camberwell Church St, London SE5 8QZ, United Kingdom",51.4737557,-0.0898963,restaurant,4.4,1
ChIJsc02i00EdkgRe_350SMar50,Bodean's BBQ Clapham,"169 Clapham High St, London SW4 7SS, United Kingdom",51.462066,-0.137223,restaurant,4.2,2
ChIJi4oPuqAFdkgR8sQIxBU4PQE,wagamama delivery kitchen,"Railway Arch, 383 Denmark Rd, Vassal, London SE5 9JR, United Kingdom",51.472563,-0.09980220000000001,restaurant,2.9,2
ChIJvQ45nSAFdkgR2xL_TNNKKE0,Bill's Victoria Restaurant,"Cardinal Place, 6 Cathedral Walk, London SW1E 5JL, United Kingdom",51.4972192,-0.1409781,restaurant,4,2
ChIJl5tV7FoDdkgR6UIgihrVM4c,Aqua Shard,"Level 31, The Shard, 31 St Thomas St, London SE1 9RY, United Kingdom",51.5045967,-0.0867188,restaurant,4,4
ChIJWd1s61EEdkgRSIVFW9F7zj0,Lotus Bar,"76 Clapham High St, London SW4 7UL, United Kingdom",51.4636076,-0.1335195,restaurant,4,2
ChIJW8PZ5GIEdkgRwW91JCzMweM,Pizza Bocca,"59-61 Loughborough Rd, Vassal, London SW9 7TB, United Kingdom",51.470772,-0.107671,restaurant,3.7,0
ChIJn-wx7LQddkgRMWv5bVEiEfQ,Da Terra Restaurant,"8 Patriot Square, London E2 9NF, United Kingdom",51.53043359999999,-0.05598239999999999,restaurant,4.9,0
ChIJ6VIO_ZkEdkgRlq97pWHQ8HQ,Oaka at the Mansion House,"48 Kennington Park Rd, London SE11 4RS, United Kingdom",51.4893264,-0.1052809,restaurant,4.3,2
ChIJVS752ZMEdkgRmqYS2XhHgK4,I Due Amici Garden Cafe,"Triangle Estate, 310-312 Kennington Rd, London SE11 4LD, United Kingdom",51.4874363,-0.1115051,restaurant,4.4,1
ChIJb7Pe-eYPdkgRCS9KuK5RoWk,Six Portland Road,"6 Portland Rd, London W11 4LA, United Kingdom",51.50721799999999,-0.207879,restaurant,4.7,2
ChIJWfSl4JMEdkgRVoXVeAO227w,Firecracker Kennington,"1-5 Windmill Row, London SE11 5DW, United Kingdom",51.487389,-0.1117746,restaurant,4.2,2
ChIJu8KJJjkEdkgR2lvQhNzuL-w,Bombay Inn,"252 Brixton Hill, London SW2 1HF, United Kingdom",51.44765820000001,-0.1244055,restaurant,4,2
ChIJ5xgUoWEFdkgRFjG5g-EudMM,Eat of Eden | Clapham,"Unit 6, Ascot Parade, Clapham Park Rd, London SW4 7EY, United Kingdom",51.4598929,-0.1296257,restaurant,4.2,0
ChIJpznsxd4DdkgRTitNWEEZ-gc,Flor,"1 Bedale St, London SE1 9AL, United Kingdom",51.5052696,-0.0898775,restaurant,4.2,0
ChIJjQgs4acEdkgRQfSEih1EjSw,Flat Iron Square,"53b Southwark St, London SE1 1RU, United Kingdom",51.5046645,-0.09449429999999999,restaurant,4.4,2
ChIJTWz4bgQFdkgRH-MuIn2pJ90,Cher Thai Eatery,"22 North St, London SW4 0HB, United Kingdom",51.4665911,-0.1423447,restaurant,4.9,0
ChIJRw8qfLkEdkgR6_et2uOEqu4,Marie's Cafe,"90 Lower Marsh, London SE1 7AB, United Kingdom",51.5014806,-0.1114583,restaurant,4.4,1
ChIJ00dWTIsFdkgR6Oc2klS4DLU,Hello Darling,"131 Waterloo Rd, London SE1 8UR, United Kingdom",51.5017557,-0.1091018,restaurant,4.3,0
ChIJS1a3f6UEdkgR12xGG7wHxj8,Mar I Terra,"14 Gambia St, London SE1 0XH, United Kingdom",51.5043245,-0.1027736,restaurant,4.4,2
ChIJT031rdEFdkgRVX0E7UCrmbA,Marsha (Gabriel's Wharf),"56 Upper Ground, London SE1 9PP, United Kingdom",51.50813600000001,-0.1103203,restaurant,4.2,0
ChIJrxedmlcDdkgRJhEty8dZntM,Brasserie Joël,"Park Plaza Westminster Bridge Hotel, 200 Westminster Bridge Rd, London SE1 7UT, United Kingdom",51.5010019,-0.1169007,restaurant,3.9,3
ChIJneqQi3AHdkgRTYszk7pOI6U,Crazyburgerz,"457 Streatham High Rd, Norbury, London SW16 3PH, United Kingdom",51.4136433,-0.1243012,restaurant,5,0
ChIJC5_UW58HdkgRZkC3I3rzzYo,Karibbean Kitchen,"6 Sunnyhill Rd, London SW16 2UH, United Kingdom",51.4305388,-0.1289739,restaurant,4.8,0
ChIJf1s3WEoPdkgRlkZlURUoT7w,KENNEDYS Fulham (Fish & Chips),"609-611, Fulham Rd., London SW6 5UA, United Kingdom",51.4802311,-0.1981024,restaurant,5,0
ChIJEyHV70EPdkgR4ltmETic22k,Grato,"9 Kensington Square, London W8 5EP, United Kingdom",51.5005628,-0.1892812,restaurant,4.9,0
ChIJv1oSsqgFdkgRuz8DyWShWzQ,beWYLD,"28 Streatham High Rd, London SW16 1DB, United Kingdom",51.4374025,-0.127647,restaurant,4.7,0
ChIJZ5I57n0GdkgRj0KUwBEUy4U,Green Floor Restaurant,"106 Mitcham Ln, London SW16 6NR, United Kingdom",51.4245835,-0.1414104,restaurant,4.4,1
ChIJSexAuSUEdkgRBSVb6GAWTzw,Perfect Blend,"8-9, Streatleigh Parade, Streatham High Rd, London SW16 1EQ, United Kingdom",51.4375892,-0.1269838,restaurant,4.2,2
ChIJnaPBAT4FdkgRaNTHwWGWYYA,Granger & Co. Chelsea,"237-239 Pavilion Rd, London SW1X 0BP, United Kingdom",51.4938195,-0.1586847,restaurant,4.4,2
ChIJezL-jSsFdkgRZF1Yh-gd04w,KOI Ramen Bar (BRIXTON ARCHES),"8 Brixton Station Rd, London SW9 8PD, United Kingdom",51.4631958,-0.1142442,restaurant,4.6,0
ChIJUaHV2ycEdkgRrqKQ7NRYFRY,Life Café Restaurant,"5, Astoria Parade, Streatham High Rd, London SW16 1PR, United Kingdom",51.43268519999999,-0.1285871,restaurant,4.5,1
ChIJoXHLhS4FdkgRfAWdp5z7qlg,Royal Wings (Streatham),"Streatleigh Parade, 11 Streatham High Rd, London SW16 1EQ, United Kingdom",51.4375126,-0.1270738,restaurant,5,0
ChIJ4ah4yUQDdkgR5_tsr26TmZo,The Garrison,"99 Bermondsey St, London SE1 3XB, United Kingdom",51.50069,-0.081719,restaurant,4.1,2
ChIJKUvKFAADdkgRiCh5hhcd22Q,Bermondsey Bar and Kitchen,"40 Bermondsey St, London SE1 3UD, United Kingdom",51.5022904,-0.0827395,restaurant,4.1,2
ChIJ45vrx8cEdkgRndjF0KpLsFI,Great British Fish and Chips,"Westminster Bridge Rd, London SE1 7PB, United Kingdom",51.502924,-0.1193341,restaurant,3.3,0
ChIJYS50-HsFdkgRGEdK8iJCmAQ,Amazonico London,"10 Berkeley Square, London W1J 6BR, United Kingdom",51.5095799,-0.1447093,restaurant,4.2,0
ChIJA3tUYVcDdkgRGsIvXKgm1No,Giuseppe's Ristorante Italiano & Pizzeria,"47-49 Borough High St, London SE1 1NB, United Kingdom",51.5047809,-0.0897095,restaurant,4.2,0
ChIJA4jSRlcDdkgRUg6moqt81q8,Lobos Meat and Tapas,"14 Borough High St, London SE1 9QG, United Kingdom",51.5055945,-0.0892784,restaurant,4.4,3
ChIJm93JfNEEdkgRk_tGIgd5I-0,Tapas Brindisa London Bridge,"18-20, Borough Market, Southwark St, London SE1 1TJ, United Kingdom",51.50494699999999,-0.09048959999999999,restaurant,4.1,2
ChIJSxI5sRkFdkgRisKT3W-D0bQ,No 11 Pimlico Road,"11 Pimlico Rd, London SW1W 8NA, United Kingdom",51.4908083,-0.1508083,restaurant,4.1,2
ChIJkwBYnFcDdkgRM3NwbxfKzHY,El Pastor,"7A Stoney St, London SE1 9AA, United Kingdom",51.5052818,-0.0911926,restaurant,4.2,2
ChIJERTs8UMDdkgREDLmAJseNFU,Porteña,"7A Stoney St, London SE1 9AA, United Kingdom",51.5053541,-0.09098819999999999,restaurant,4.6,0
ChIJC3IpOFcDdkgRtRUX0uhY0OI,Boro Bistro,"6-10 Borough High St, London SE1 9QQ, United Kingdom",51.5062051,-0.08872239999999999,restaurant,4.4,2
ChIJ__-PNkYDdkgRafqigLYNph4,WatchHouse Tower Bridge,"37 Shad Thames, London SE1 2NJ, United Kingdom",51.5037368,-0.0746038,restaurant,4.6,2
ChIJa5D6edoFdkgRwU6gXDCBWjc,Caribbean Cuisine UK,"Windrush Square, London SW2 1JQ, United Kingdom",51.46090599999999,-0.1153071,restaurant,5,0
ChIJVTXfsUEEdkgRPSZ4oDYSyFM,Cafe On The Hill,"91 Brixton Hill, London SW2 1AA, United Kingdom",51.454909,-0.119332,restaurant,4.5,1
ChIJs975Uz8FdkgRDUS1-jEjSpo,Zia Teresa,"6 Hans Rd, London SW3 1RX, United Kingdom",51.49883999999999,-0.164185,restaurant,4,2
ChIJAWxP2DgFdkgRyH1FaVHvJGA,"The Capital Hotel, Apartments & Townhouse - London","22, 24 Basil St, London SW3 1AT, United Kingdom",51.4999208,-0.1616552,restaurant,4.3,0
ChIJnSyxmncFdkgRurM51uuf0J4,Gail's,"31- 32 Battersea Square, London SW11 3RA, United Kingdom",51.4748288,-0.1752404,restaurant,4,2
ChIJfxJO69cEdkgRGSTEtEccZPs,GBR (Great British Restaurant),"37-38 St James's Pl, St. James's, London SW1A 1NS, United Kingdom",51.5054439,-0.1394745,restaurant,4.5,0
ChIJww-u68sEdkgR3lqhkcsnvBY,Frog by Adam Handling Restaurant Covent Garden,"34-35 Southampton St, London WC2E 7HG, United Kingdom",51.51080839999999,-0.1220355,restaurant,4.7,4
ChIJ-TGQjmgEdkgRdgAbaP9LiiQ,The Rum Kitchen,"437 Coldharbour Ln, London SW9 8LN, United Kingdom",51.4614743,-0.1137835,restaurant,3.9,2
ChIJTXSzM68FdkgRAImmXGl8lYE,Bombay Bicycle Chef,"28 Queenstown Rd, London SW8 3RX, United Kingdom",51.46741189999999,-0.1504707,restaurant,4.4,2
ChIJ7wpvmjkEdkgRzXnUz8GmqQg,Pinuccio,"2 Morrish Rd, Brixton Hill, London SW2 4EN, United Kingdom",51.4473975,-0.1265306,restaurant,0,0
ChIJnTubpe4EdkgRftKvJi5V9z0,Pico Bar & Grill,"74 Albert Embankment, London SE1 7TL, United Kingdom",51.487745,-0.1230353,restaurant,4.2,2
ChIJ4ddn3yQEdkgRzons7Rqu-_s,Domino's Pizza - London - Streatham Hill,"114-116 Streatham Hill, London SW2 4RS, United Kingdom",51.4402042,-0.1259833,restaurant,3.5,2
ChIJ68TBBSUEdkgRXFwLg5SDpbo,Subway,"174 Streatham Hill, London SW2 4RU, United Kingdom",51.43859880000001,-0.1269276,restaurant,3.9,1
ChIJYWwRsSUEdkgRUzNAHdFxm84,Taj Mahal,"11A Leigham Ct Rd, London SW16 2ND, United Kingdom",51.4378424,-0.1263503,restaurant,4,0
ChIJJQB0zagFdkgRaKA8LOsKUvs,Le Pot Lyonnais,"36-40 Queenstown Rd, London SW8 3RY, United Kingdom",51.46780649999999,-0.1503468,restaurant,3.5,2
ChIJIUUDqiAFdkgRl3jFPjuMUCI,Queens Town Burgers,"34 Queenstown Rd, London SW8 3RX, United Kingdom",51.4675592,-0.1503956,restaurant,4.7,1
ChIJ3Vra4b4FdkgRbDGo1arhI5E,Pipoca Vegan,"224 Brixton Rd, Vassal, London SW9 6AH, United Kingdom",51.4720424,-0.1129818,restaurant,4.5,0
ChIJiUvIu1sEdkgRZJQFh2Pt0jA,Cafe Cairo,"88 Landor Rd, London SW9 9PE, United Kingdom",51.4659139,-0.125044,restaurant,4.5,2
ChIJizzTWGcDdkgRrPtLZD3g2pM,The Dutchie Restaurant & Cocktail Bar,"58a Camberwell Church St, London SE5 8QZ, United Kingdom",51.4736777,-0.0892091,restaurant,3.5,0
ChIJP0kX-NEDdkgR7acvtvE88Jw,Pizza,"31 Peckham Rd, London SE5 8UH, United Kingdom",51.47404849999999,-0.0827475,restaurant,0,0
ChIJDbbm6_kEdkgR70bw0KvhD_w,Ocean Blue,"172 Wandsworth Rd, London SW8 2LA, United Kingdom",51.4771066,-0.1301668,restaurant,4.3,2
ChIJbcnLV_EEdkgRxQCZUN9wsS8,Machico,"133 S Lambeth Rd, London SW8 1XB, United Kingdom",51.47867369999999,-0.1233362,restaurant,4.4,1
ChIJw3n7uzADdkgRjSTGrzjGbrI,Vicinity,"St Katharine's Way, London E1W 1LD, United Kingdom",51.5064922,-0.073332,restaurant,3.7,0
ChIJb5QdIuwFdkgRjK14FWZEjmo,SW9 kitchen,"S w 9 Kitchen Arch 39 Railway Arch, Nursery Rd, London SW9 8BP, United Kingdom",51.4633969,-0.1160223,restaurant,5,0
ChIJe3bpu2cEdkgRRo3h3E_dYsw,Upstairs at The Department Store,"10 Stockwell Ave, London SW9 8BQ, United Kingdom",51.46413039999999,-0.1155174,restaurant,4.6,0
ChIJ7dHQ-F0EdkgRxjEKAzuxUXY,Afandina Lebanese Cuisine,"133 Stockwell Rd, London SW9 9TN, United Kingdom",51.4671701,-0.1174932,restaurant,4.8,1
ChIJFQDkm2gEdkgRDtC8FlSCJKk,The Provincial,"29 Market Row, London SW9 8LB, United Kingdom",51.4620201,-0.11321,restaurant,4.6,0
ChIJzTKWP1ADdkgRpzEDYyJ7vMI,Cote - London Bridge Hay's Galleria,"Hay’s Galleria, Tooley St, London SE1 2HD, United Kingdom",51.5062524,-0.0835564,restaurant,4.3,2
ChIJzee0vroEdkgRsWQAXWfSU5Q,The Anchor & Hope,"36 The Cut, London SE1 8LP, United Kingdom",51.5034563,-0.1065778,restaurant,4.4,2
ChIJJ2erNeoEdkgRV0SGIUovDiU,Park Plaza London Riverbank,"18 Albert Embankment, London SE1 7TJ, United Kingdom",51.491367,-0.1214208,restaurant,4.3,0
ChIJ5V4Tx7EEdkgRATzq2JQW34E,Sea Containers London,"20 Upper Ground, London SE1 9PD, United Kingdom",51.5081459,-0.1066843,restaurant,4.5,0
ChIJUbjMdZMGdkgRiBBr-QmGQWo,Charsi Karahi,"1553 London Rd, Norbury, London SW16 4AD, United Kingdom",51.4123603,-0.124033,restaurant,4.3,2
ChIJZYEOjiQHdkgR-Jjv1fQcbug,"Plus 233 Afro-Fusion Restaurant, Bar & Grill","1336 London Rd, Norbury, London SW16 4DG, United Kingdom",51.4081403,-0.1215162,restaurant,4.6,0
ChIJoQCtVesGdkgRLtM5aE0fNow,Steakout Norbury,"1443 London Rd, Norbury, London SW16 4AQ, United Kingdom",51.40957359999999,-0.1225126,restaurant,4,2
ChIJz3cFwXAHdkgRTBgOXMmvkLc,Ariana,"1496 London Rd, Norbury, London SW16 4BT, United Kingdom",51.4122351,-0.1235968,restaurant,4.5,0
ChIJK164vukGdkgR0ETnN-uIGKg,Mangualde Restaurant,"Restaurant, 1154 London Road Mangualde, London SW16 4DS, United Kingdom",51.4033154,-0.1189399,restaurant,4.2,2
ChIJa4IP84kGdkgRvDLJhh7z2c4,Cztery Pory Roku - Four Seasons - Polish Bistro,"99 Streatham Vale, London SW16 5SQ, United Kingdom",51.4156112,-0.1391371,restaurant,4.5,0
ChIJsTBJU-sGdkgRZs5hhIoE620,Affogato,"1457 London Rd, Norbury, London SW16 4AQ, United Kingdom",51.41000039999999,-0.1226071,restaurant,4.4,0
ChIJYwbSBCYEdkgRBB_P0Ik6Rg0,Aya Lebanese Cuisine Streatham,"78 Streatham High Rd, London SW16 1BS, United Kingdom",51.4355329,-0.1285274,restaurant,4.4,2
ChIJtzcw8PEFdkgRZrauLPG-ROc,Flavours of Brazil,"62 Clapham High St, London SW4 7UL, United Kingdom",51.4637773,-0.132998,restaurant,4.1,0
ChIJV07xdagEdkgRzcN_Bin3VFc,WHERE THE PANCAKES ARE - Flat Iron Square,"Arch 35a, 85a Southwark Bridge Rd, London SE1 0NQ, United Kingdom",51.5043212,-0.094971,restaurant,4.4,2
ChIJ0_pwZVcDdkgREVoLfASYupM,SoulFood,"8 Southwark St, London SE1 9AH, United Kingdom",51.5050688,-0.0900753,restaurant,4.4,0
ChIJIfC0dlcDdkgRNF4k9xmPN_Q,Horn OK Please,"Unit 55, Borough Market Kitchen, Jubilee Pl, Winchester Walk, London SE1 9AG, United Kingdom",51.5059943,-0.09092009999999999,restaurant,4.6,0
ChIJdbosSVcDdkgRQAhOH3hguO4,Cuzco Peruvian Bar and Restaurant,"4-6 London Bridge St, London SE1 9SG, United Kingdom",51.50545040000001,-0.08854959999999999,restaurant,3.9,0
ChIJtW4QntYDdkgRXptTcw6ywiE,shuk;,"Borough Market Kitchen, Jubilee Pl, Winchester Walk, London SE1 9AG, United Kingdom",51.5061526,-0.090705,restaurant,4.5,0
ChIJEbSUtQYFdkgRTaE6ITM7B6g,The Mason's Arms,"169 Battersea Park Rd, Nine Elms, London SW8 4BT, United Kingdom",51.47680829999999,-0.1468361,restaurant,4.3,2
ChIJWXUpk2wFdkgRqR14C_Z-JAQ,Joy Of Bao,"Unit 20B, 15-17 Ingate Pl, Nine Elms, London SW8 3NS, United Kingdom",51.47538240000001,-0.1447623,restaurant,5,0
ChIJheqUZWgEdkgR3nHU8cmZpt0,"Prince of Wales, Brixton","467- 469 Brixton Rd, London SW9 8HH, United Kingdom",51.4615105,-0.1149433,restaurant,3.5,2
ChIJoVSM3cwFdkgRRrnjv4qMQS0,Rudie's Jerk Shack (Brixton Village),"10 Market Row, London SW9 8LD, United Kingdom",51.461835,-0.1134611,restaurant,3.9,0
ChIJWxvUN60FdkgRLABqXMCBD-A,The Rose & Crown,"2 The Polygon, London SW4 0JG, United Kingdom",51.4636995,-0.141342,restaurant,4.2,2
ChIJTctnst4FdkgR-NZLFTd29EI,Green Monkey London,"2d Tooting Bec Rd, Tooting Bec, London SW17 8BD, United Kingdom",51.4353708,-0.1591398,restaurant,4.4,0
ChIJh5lhnZ0CdkgRnB2-YmI3IMk,Midpoint Restaurant,"3, Anchor Iron Wharf, Ballast Quay, London SE10 9GL, United Kingdom",51.48610919999999,-0.000795,restaurant,4.6,2
ChIJu3jc0d4EdkgRmVLp_Cwwti4,Quilon,"41 Buckingham Gate, London SW1E 6AF, United Kingdom",51.4987366,-0.1377048,restaurant,4.4,3
ChIJQW2UlNQFdkgRFSWo8WxX-5A,"The Hercules, Lambeth","2 Kennington Rd, London SE1 7BL, United Kingdom",51.4982216,-0.1125304,restaurant,4.1,2
